"Reporting date","Name of health care institution","Region","District","address","EDRPOU code of health care institution","Latitude","Longitude","Hospitalization","Number of artificial respirating units in health care institution","Number of recovery cases among people with confirmed COVID-19 diagnosis during reporting interval","Number of beds adaptated for hospitalization of peolple with suspected SARS-CoV-2 (2019-nCoV) coronavirus infection","Number of peolple with suspected SARS-CoV-2 (2019-nCoV) coronavirus infection, whoes cases wait for laboratory confirmation","Number of peolple with suspected SARS-CoV-2 (2019-nCoV) coronavirus infection, whoes cases registered during reported period","Number of peolple with confirmed COVID-19 diagnosis, affected by SARS-CoV-2 (2019-nCoV) coronavirus infection, under medical treatment","Number of people whoes COVID-19 diagnosis confirmed during reporting period","Number of fatal cases among people with confirmed COVID-19 diagnosis during reporting interval","State"
2020-01-27,"КНП ""Бершадська окружна лікарня інтенсивного лікування""","VInnitska","Bershadskiy","m. Bershad, vul. Budkevicha, 2","01982494","48.363830569","29.511209145",0,13,0,20,0,0,0,0,0,"Not found"
2020-01-27,"КНП «Ямпільська ЦРЛ»","VInnitska","YampIlskiy","m. YampIl, vul. Pirogova,1","01982726","48.247685881","28.278572814",0,11,0,6,0,0,0,0,0,"Not found"
2020-01-27,"КНП «Вінницька міська клінічна лікарня №1»","VInnitska",NA,"m. VInnitsya, vul. Hmelnitske shose, 96","05484126","49.236347324","28.414002928",0,11,0,12,0,0,0,0,0,"Not found"
2020-01-27,"КНП ""Хмільницька центральна районна лікарня""","VInnitska",NA,"m. HmIlnik, vul. Monastirska, 71","01982695","49.553637292","27.948236991",0,9,0,4,0,0,0,0,0,"Not found"
2020-01-27,"КП ""Токмацька БЛІЛ"" ТМР","ZaporIzka",NA,"m. Tokmak, vul. Tsentralna, 55M","41477873","47.255713330","35.708740805",0,4,0,15,0,0,0,0,0,"Not found"
2020-01-27,"КНП ""Вінницька центральна районна клінічна лікарня""","VInnitska",NA,"m. VInnitsya, Hmelnitske shose, 92","01982502","49.235508","28.414243",0,6,0,16,0,0,0,0,0,"Not found"
2020-01-27,"КНП «Вінницька обласна дитяча інфекційна клінічна лікарня»","VInnitska",NA,"m. VInnitsya, vul. KiYivska, 68","34004453","49.250053205","28.476839183",0,3,0,55,0,0,0,0,0,"Not found"
2020-01-27,"КНП ""Жмеринська центральна районна лікарня""","VInnitska",NA,"m. Zhmerinka, vul. KiYivska, 288","37261811","49.061009","28.119112",0,3,0,2,0,0,0,0,0,"Not found"
2020-01-27,"КП ""Приморська ЦРЛ"" ПРР ЗО","ZaporIzka","Primorskiy","m. Primorsk, vul. Morska, 74","01992989","46.724143180","36.358452487",0,5,0,12,0,0,0,0,0,"Not found"
2020-01-27,"КНП ""Могилів-Подільська обласна лікарня інтенсивного лікування""","VInnitska","MogilIv-PodIlskiy","m. MogilIv-PodIlskiy, vul. Poltavska, 89/2","01982591","48.458001084","27.771482977",0,4,0,6,0,0,0,0,0,"Not found"
2020-01-27,"Комунальне підприємства ""Полтавська обласна клінічна інфекційна лікарня Полтавської обласної ради""","Poltavska",NA,"m. Poltava, prosp. Pershotravneviy, 22","01999661","49.576349995","34.564835021",0,9,0,152,0,0,0,0,0,"Not found"
2020-01-27,"КНП «Крижопільська ОЛІЛ»","VInnitska","KrizhopIlskiy","smt. KrizhopIl, vul. Danila Nechaya, 10","01982560","48.383047974","28.873021153",0,3,0,4,0,0,0,0,0,"Not found"
2020-01-27,"Комунальне підприємство ""Лубенська лікарня інтенсивного лікування Лубенської міської ради""","Poltavska",NA,"m. Lubni, vul.P'yatikopa, 26","01999388","50.002157494","32.991827393",0,10,0,18,0,0,0,0,0,"Not found"
2020-01-27,"Комунальне підприємство ""1 міська клінічна лікарня Полтаської міської ради","Poltavska",NA,"m. Poltava, vul. O.Gonchara, 27a","01999655","49.586655905","34.525052180",0,10,0,40,0,0,0,0,0,"Not found"
2020-01-27,"КНП ""Шаргородська центральна районна лікарня""","VInnitska","Shargorodskiy","m. Shargorod, vul. Parhomenko, 9","33868196","48.74983","28.08317",0,3,0,20,0,0,0,0,0,"Not found"
2020-01-27,"КП ""Волинська обласна клінічна лікарня""","Volinska",NA,"m. Lutsk, prosp. Prezidenta Grushevskogo, 21","01983163","50.74507","25.32008",0,0,0,0,0,0,0,0,0,"Not found"
2020-01-27,"КНП ""Ковельське міськрайонне територіальне медичне об'єднання""","Volinska",NA,"m. Kovel, vul. Oleni PchIlki, 4","01982940","51.213658141","24.712902655",0,12,0,8,0,0,0,0,0,"Not found"
2020-01-27,"Комунальне підприємство ""Пирятинська центральна районна лікарня Пирятинської районної ради""","Poltavska","Piryatinskiy","m. Piryatin, vul. Avruschenka, 2","01999460","50.251286617","32.506312506",0,4,0,2,0,0,0,0,0,"Not found"
2020-01-27,"КНП ""Нововолинська центральна міська лікарня""","Volinska",NA,"m. Novovolinsk, prosp. Peremogi, 7","01983016","50.724657282","24.172172515",0,11,0,6,0,0,0,0,0,"Not found"
2020-01-27,"КП ""Воолинський обласний перинатальний центр"" Волинської обласної ради","Volinska",NA,"m. Lutsk, vul. Zagorodnya, 20","42078561","50.74507","25.32008",0,9,0,2,0,0,0,0,0,"Not found"
2020-01-27,"КНП ""Немирівська центральна районна лікарня""","VInnitska","NemirIvskiy","m. NemirIv, vul. Evdokimenka, 21","01982614","48.974671","28.844196",0,3,0,10,0,0,0,0,0,"Not found"
2020-01-27,"КП ""Волинська обласна інфекційна лікарня"" Волинської обласної ради","Volinska",NA,"m. Lutsk, vul. Shevchenka, 30","03398983","50.74507","25.32008",0,5,0,16,0,0,0,0,0,"Not found"
2020-01-27,"КП ""Дитяча лікарня імені В.Й. Башека""","Zhitomirska",NA,"m. Zhitomir, vul. Svyatoslava RIhtera, 23","42779217","50.255794","28.659639",0,NA,0,4,0,0,0,0,0,"Not found"
2020-01-27,"КНП «Піщанська ЦРЛ»","VInnitska","PIschanskiy","smt. PIschanka, vul. Tsentralna,42","01982620","48.210431793","28.884156165",0,1,0,2,0,0,0,0,0,"Not found"
2020-01-27,"Коломийська районна інфекційна лікарня","Ivano-FrankIvska",NA,"m. Kolomiya, vul. Simona Petlyuri, 66","31575286","48.536837196","25.045357525",0,0,0,60,0,0,0,0,0,"Not found"
2020-01-27,"КНП «Яремчанська ЦМЛ» Яремчанської міської ради","Ivano-FrankIvska",NA,"m. Yaremche, vul. Dovbusha, 5","01993552","48.429582000","24.576655019",0,3,0,10,0,0,0,0,0,"Not found"
2020-01-27,"КНП „Міська клінічна лікарня № 21 імені проф. Є.Г. Попкової ” Дніпровської міської ради","DnIpropetrovska",NA,"m. DnIpro, vul. Kanatna, 17","01984659","48.462218030","35.003954116",0,6,0,180,0,0,0,0,0,"Not found"
2020-01-27,"КНП ""Іваничівська центральна районна лікарня""","Volinska","IvanichIvskiy","smt. IvanichI, vul. Grushevskogo, 45","01982904","50.63777","24.35917",0,0,0,0,0,0,0,0,0,"Not found"
2020-01-27,"КНП „Криворізька інфекційна лікарня № 1”  Криворізької міської ради","DnIpropetrovska",NA,"m. Kriviy RIg, vul. YurIya KamInskogo, 5","01986115","47.903169071","33.388954027",0,3,0,180,0,0,0,0,0,"Not found"
2020-01-27,"КОМУНАЛЬНЕ НЕКОМЕРЦІЙНЕ ПІДПРИЄМСТВО МАРІУПОЛЬСЬКОЇ МІСЬКОЇ РАДИ ""МАРІУПОЛЬСЬКА МІСЬКА ЛІКАРНЯ № 4 ІМ. І.К. МАЦУКА""","Donetska",NA,"m. MarIupol, vul. Pashkovskogo, 4","01990654","47.110023873","37.632926587",0,7,0,130,0,0,0,0,0,"Not found"
2020-01-27,"КОМУНАЛЬНЕ НЕКОМЕРЦІЙНЕ ПІДПРИЄМСТВО МАРІУПОЛЬСЬКОЇ МІСЬКОЇ РАДИ ""МАРІУПОЛЬСЬКА МІСЬКА ЛІКАРНЯ ШВИДКОЇ МЕДИЧНОЇ ДОПОМОГИ""","Donetska",NA,"m. MarIupol, vul. Bahmutska, 20-A","01990660","47.115768286","37.547935870",0,6,0,40,0,0,0,0,0,"Not found"
2020-01-27,"КОМУНАЛЬНЕ НЕКОМЕРЦІЙНЕ ПІДПРИЄМСТВО ""ІНФЕКЦІЙНА ЛІКАРНЯ М.КОСТЯНТИНІВКА""","Donetska",NA,"m. KostyantinIvka, vul. Evropeyska, 17","03096940","48.499353083","37.686972210",0,2,0,90,0,0,0,0,0,"Not found"
2020-01-27,"КП ""Луцька центральна районна лікарня""","Volinska","Lutskiy","s. Lipini, vul. TeremnIvska, 100","01983134","50.764280","25.393923",0,9,0,20,0,0,0,0,0,"Not found"
2020-01-27,"КОМУНАЛЬНЕ НЕКОМЕРЦІЙНЕ ПІДПРИЄМСТВО ""ІНФЕКЦІЙНА ЛІКАРНЯ М. МИРНОГРАД""","Donetska",NA,"m. Mirnograd, prov. TolbuhIna, 44","31338129","48.268806571","37.276419820",0,1,0,75,0,0,0,0,0,"Not found"
2020-01-27,"КП ""Веселівська БЛІЛ"" ВРР","ZaporIzka","VeselIvskiy","smt. Vesele, vul. Gorkogo, 2A","41955911","47.018487189","34.908776219",0,5,0,10,0,0,0,0,0,"Not found"
2020-01-27,"КНП «Чорноморська лікарня» Чорноморської міської ради Одеської області","Odeska",NA,"m. Chornomorsk, vul. VItalIya Shuma, 4","01982212","46.295223575","30.648085507",0,3,0,24,0,0,0,0,0,"Not found"
2020-01-27,"КП""Маневицька центральна районна лікарня""","Volinska","Manevitskiy","smt. ManevichI, vul. NezalezhnostI, 1","01983186","51.290636","25.561194",0,9,0,20,0,0,0,0,0,"Not found"
2020-01-27,"КНП ""Бердичівська міська лікарня""","Zhitomirska",NA,"m. BerdichIv, vul. Zdorov’ya, 1","01992015","49.901759","28.586652",0,16,0,16,0,0,0,0,0,"Not found"
2020-01-27,"КНП ""Камінь-Каширська центральна районна лікарня""","Volinska","KamIn-Kashirskiy","m. KamIn-Kashirsk, vul. Shevchenka, 43","01983051","51.631262443","24.951863920",0,7,0,4,0,0,0,0,0,"Not found"
2020-01-27,"Комунальне підприємство «Лікарня №1» Житомирської міської ради","Zhitomirska",NA,"m. Zhitomir, vul. Velika BerdichIvska, 70","42788614","50.255794","28.659639",0,16,0,40,0,0,0,0,0,"Not found"
2020-01-27,"КНП ""Центральна міська лікарня Кіровоградської міської ради, стаціонар №1""","KIrovogradska",NA,"m. Kropivnitskiy, vul. Fortetsya, 21","05493846","48.508331380","32.266261029",0,6,0,135,0,0,0,0,0,"Not found"
2020-01-27,"КНП ""Горохівська центральна районна лікарня""","Volinska","GorohIvskiy","m. GorohIv, vul. Parkova, 22","01982896","50.496364","24.762261",0,6,0,20,0,0,0,0,0,"Not found"
2020-01-27,"КНП ""ТМО ""БЛІЛ та швидкої мед.допомоги"" ММР ЗО (відокремлений підрозділ ""Інфекційна лікарня"")","ZaporIzka",NA,"m. MelItopol, vul. KIzIyarska,38","05498720","46.865809024","35.395828325",0,20,0,100,0,0,0,0,0,"Not found"
2020-01-27,"КНП ""Коростенська центральна міська лікарня""","Zhitomirska",NA,"m. Korosten, vul. M.Amosova, 8","01992050","50.94929","28.64162",0,4,0,9,0,0,0,0,0,"Not found"
2020-01-27,"КНП ""Новоград-Волинське міськрайонне територіальне медичне об'єднання""","Zhitomirska",NA,"m. Novograd-Volinskiy, vul. NatalIYi OrzhevskoYi, 13","01991820","50.585629291","27.607596661",0,4,0,55,0,0,0,0,0,"Not found"
2020-01-27,"КП ""Кверцівське районне територіальне медичне об'єднання""","Volinska","KIvertsIvskiy","m. KIvertsI, vul. FIlatova, 6","38856054","50.832340","25.457025",0,2,0,15,0,0,0,0,0,"Not found"
2020-01-27,"КНП «Обласна клінічна інфекційна лікарня» Закарпатської обласної ради»","Zakarpatska",NA,"m. Uzhgorod, vul.GriboEdova, 20a","26464978","48.638118013","22.282963181",0,6,0,100,0,0,0,0,0,"Not found"
2020-01-27,"КНП БМР ""Бердянське територіальне медичне об'єднання""","ZaporIzka",NA,"m. Berdyansk, vul. Konsulska, 23","39029713","46.760974884","36.786884491",0,19,0,40,0,0,0,0,0,"Not found"
2020-01-27,"КНП ""Спеціалізована медико-санітарна частина""ЕМР","ZaporIzka",NA,"m. Energodar, vul. BudIvelnikIv, 33","42594137","47.501506722","34.634185914",0,4,0,30,0,0,0,0,0,"Not found"
2020-01-27,"КНП «Сєвєродонецької міської багатопрофільної лікарні» Сєвєродонецької міської ради","Luganska",NA,"m. SEvErodonetsk, vul. Egorova, 2b","37747995","48.958906083","38.490041527",0,23,0,60,0,0,0,0,0,"Not found"
2020-01-27,"КНП ""Мелітопольська ЦРЛ"" МРР ЗО","ZaporIzka",NA,"m. MelItopol, vul.KIzIyarska,55","01992877","46.871115695","35.394588602",0,8,0,32,0,0,0,0,0,"Not found"
2020-01-27,"КНП «Рубіжанська центральна міська лікарня» Рубіжанської міської ради Луганської області","Luganska",NA,"m. RubIzhne, vul. Studentska, 19","01983683","49.024594188","38.357225009",0,6,0,30,0,0,0,0,0,"Not found"
2020-01-27,"КНП ""Якимівська ЦРЛ"" ЯСР ЗО","ZaporIzka","YakimIvskiy","smt. YakimIvka, vul. Tsentralna, 30","01993032","46.707021478","35.168084902",0,8,0,25,0,0,0,0,0,"Not found"
2020-01-27,"КУ ""Обласна інфекційна клінічна лікарня"" ЗОР","ZaporIzka",NA,"m. ZaporIzhzhya, bul. GvardIyskiy, 142","05498849","47.838633","35.160926",0,4,0,46,0,0,0,0,0,"Not found"
2020-01-27,"КНП «Районна лікарня Калуської районної ради","Ivano-FrankIvska",NA,"m. Kalush, vul. Karakaya, 25","33271905","49.018029815","24.350981701",0,0,0,25,0,0,0,0,0,"Not found"
2020-01-27,"Клініка ""Мотор-Січ""","ZaporIzka",NA,"m. ZaporIzhzhya, vul. Bryullova, 6","31507969","47.827833","35.203717",0,2,0,0,0,0,0,0,0,"Not found"
2020-01-27,"5. Комунальне некомерційне підприємство «Яготинська центральна районна лікарня» Яготинської районної ради","KiYivska","Yagotinskiy","m. Yagotin, vul. NezalezhnostI, 71","01994422","50.270673524","31.763791993",0,3,0,20,0,0,0,0,0,"Not found"
2020-01-27,"ТОВ ""Вітацентр""","ZaporIzka",NA,"m. ZaporIzhzhya, vul. SEdova, 3","35183119","47.838633","35.160926",0,1,0,0,0,0,0,0,0,"Not found"
2020-01-27,"КНП ""Ємільчинська центральна районна лікарня""","Zhitomirska","EmIlchinskiy","smt. EmIlchine, vul 1 travnya, 133","01991659","50.87253","27.80708",0,0,0,0,0,0,0,0,0,"Not found"
2020-01-27,"КНП ""Центр первинної медико-санітарної допомоги №2""","ZaporIzka",NA,"m. MelItopol, vul. IndustrIalna, 89","38761806","46.850039","35.343226",0,1,0,0,0,0,0,0,0,"Not found"
2020-01-27,"Комунальне некомерційне підприємство ""Чутівська центральна районна лікарня""","Poltavska","ChutIvskiy","smt. Chutove, vul. Poltavskiy shlyah, 23","01999537","49.703233582","35.145434977",0,5,0,9,0,0,0,0,0,"Not found"
2020-01-27,"КНП ""Центр первинної медико-санітарної допомоги № 8""","ZaporIzka",NA,"m. ZaporIzhzhya, vul. Harchova, 2","38783662","47.838633","35.160926",0,1,0,0,0,0,0,0,0,"Not found"
2020-01-27,"КНП ""Овруцька міська лікарня""","Zhitomirska","Ovrutskiy","m. Ovruch, vul. Tarasa Shevchenka, 106","42435766","51.32598","28.80267",0,0,0,0,0,0,0,0,0,"Not found"
2020-01-27,"6. Комунальне некомерційне підприємство Переяслав-Хмельницької районної ради, Переяслівської міської ради і сільських районних рад Перея","KiYivska",NA,"m. Pereyaslav, vul. Bogdana Hmelnitskogo, 137","01994161","50.064280878","31.440849524",0,3,0,10,0,0,0,0,0,"Not found"
2020-01-27,"КНП ""Центр первинної медико-санітарної допомоги № 6""","ZaporIzka",NA,"m. ZaporIzhzhya, vul. Chumachenko, 21","38969678","47.782566","35.229527",0,0,0,0,0,0,0,0,0,"Not found"
2020-01-27,"КНП ""Івано-Франківська обласна клінічна інфекційна лікарня”","Ivano-FrankIvska",NA,"m. Ivano-FrankIvsk, vul. Getmana Sagaydachnogo, 66","01993291","48.938635828","24.719539985",0,6,0,170,0,0,0,0,0,"Not found"
2020-01-27,"КНП «Житомирська обласна дитяча клінічна лікарня» Житомирської обласної ради","Zhitomirska","Zhitomirskiy","s. StanIshIvka, Skvirske shose, 6","02774119","50.230535527","28.687190713",0,9,0,36,0,0,0,0,0,"Not found"
2020-01-27,"КНП ""Андрушівська центральна районна лікарня""","Zhitomirska","AndrushIvskiy","m. AndrushIvka, vul. TItova, 34","01991547","50.029632767","29.019907729",0,5,0,6,0,0,0,0,0,"Not found"
2020-01-27,"Комунальне некомерційне підприємство ""Хорольська центральна районна лікарня""","Poltavska","Horolskiy","m. Horol, vul. M.Polonskogo, 11/1","01999514","49.779586591","33.271094877",0,8,0,3,0,0,0,0,0,"Not found"
2020-01-27,"КНП ""Центральна районна лікарня ім. Д.І.Потєхіна""","Zhitomirska","KorostishIvskiy","m. KorostishIv, vul. GeroYiv NebesnoYi SotnI, 58","01991731","50.314039127","29.057025776",0,5,0,2,0,0,0,0,0,"Not found"
2020-01-27,"4. Комунальне підприємство «Комунальне некомерційне підприємство Тетіївська центральна районна лікарня»","KiYivska","TetIYivskiy","m. TetIYiv, vul. TsvItkova, 26","00994221","49.363398827","29.684158174",0,3,0,10,0,0,0,0,0,"Not found"
2020-01-27,"КНП ""Народицька лікарня""","Zhitomirska","Naroditskiy","smt. NarodichI, vul. Zamkova, 115","42739284","51.199922272","29.086159986",0,0,0,2,0,0,0,0,0,"Not found"
2020-01-27,"КНП «Радомишльська лікарня» Радомишльської міської ради","Zhitomirska","Radomishlskiy","m. Radomishl, vul. Prisutstvenna, 9","01991903","50.503096625","29.240794035",0,NA,0,15,0,0,0,0,0,"Not found"
2020-01-27,"3. Комунальне некомерційне підприємство Таращанської районної ради «Таращанська центральна районна лікарня»","KiYivska","Taraschanskiy","m. Tarascha, vul. Shevchenka, 66","01994215","49.557990888","30.499331485",0,5,0,5,0,0,0,0,0,"Not found"
2020-01-27,"КНП «Старобільське  районне територіальне медичне об’єднання» Старобільської районної ради","Luganska","StarobIlskiy","m. StarobIlsk, vul Monostirska, 67","01983714","49.281546728","38.897801128",0,10,0,30,0,0,0,0,0,"Not found"
2020-01-27,"КНП «Станично-Луганське районне  територіальне медичне об’єднання».","Luganska","Stanichno-Luganskiy","smt. Stanitsya Luganska, vul. 5-ta lInIya, 39","01983602","48.665545929","39.501912720",0,2,0,20,0,0,0,0,0,"Not found"
2020-01-27,"КНП ""Дніпрорудненська БМЛ"" ДМР ВР ЗО","ZaporIzka","VasilIvskiy","m. DnIprorudne, vul. Zelena, 2","02005131","47.389688873","35.010935204",0,8,0,30,0,0,0,0,0,"Not found"
2020-01-27,"КНП "" Пологівська БЛІЛ"" ПРР ЗО","ZaporIzka","PologIvskiy","m. Pologi, vul. Im. Geroya UkraYini Satskogo V.A.,6 / vul. I.Chuberka, 90","01992972","47.481971585","36.247797685",0,8,0,26,0,0,0,0,0,"Not found"
2020-01-27,"КНП ""Кам'янська-Дніпровська ЦРЛ"" КДРРР ЗО","ZaporIzka",NA,"m. Kam'yanka-DnIprovska, vul Naberezhna, 130","01992854","47.487090103","34.416736211",0,6,0,27,0,0,0,0,0,"Not found"
2020-01-27,"КНП «Рожнятівська ЦРЛ» Рожнятівської районної ради","Ivano-FrankIvska","RozhnyatIvskiy","smt. RozhnyatIv, vul. ShkIlna, 17","01993612","48.933955175","24.147874990",0,6,0,20,0,0,0,0,0,"Not found"
2020-01-27,"КНП ""Гуляпільська ЦРЛ"" ГРР ЗО","ZaporIzka","GulyaypIlskiy","m. Gulyay-Pole, vul. Soborna, 107-b","01992937","47.665744415","36.258833592",0,4,0,20,0,0,0,0,0,"Not found"
2020-01-27,"Комунальне некомерційне підприємство ""Решетилівська центральна районна лікарня Решетилівської районної ради""","Poltavska","ReshetilIvskiy","m. ReshetilIvka, vul. Grushevskogo, 76","01999483","49.560667993","34.061639278",0,5,0,22,0,0,0,0,0,"Not found"
2020-01-27,"КНП ""Оріхівська БЛІЛ"" ОРР ЗО","ZaporIzka","OrIhIvskiy","m. OrIhIv, vul. Parkova, 2","01992953","47.566440571","35.786295504",0,3,0,31,0,0,0,0,0,"Not found"
2020-01-27,"КНП ""Запорізький центр первинної медико-санітарної допомоги №1""","ZaporIzka",NA,"m. ZaporIzhzhya, prosp. Soborniy, 88","38969725","47.820423","35.173109",0,0,0,0,0,0,0,0,0,"Not found"
2020-01-27,"КНП ""Нововасилівська РЛ"" ПРР ЗО","ZaporIzka","Priazovskiy","smt. NovovasilIvka, vul. Poshtova, 75","24908721","46.829166996","35.755278000",0,0,0,20,0,0,0,0,0,"Not found"
2020-01-27,"КНП ""Городенківська центральна районна лікарня""","Ivano-FrankIvska","GorodenkIvskiy","m. Gorodenka, vul. Sheptitskogo, 24-E","01993428","48.664415124","25.491961338",0,6,0,10,0,0,0,0,0,"Not found"
2020-01-27,"КНП «Долинська багатопрофільна лікарня» Долинської  районної ради Івано-Франківської області","Ivano-FrankIvska","Dolinskiy","m. Dolina, vul. Oksani Gritsey, 15","01993457","48.972304717","23.992965630",0,6,0,20,0,0,0,0,0,"Not found"
2020-01-27,"КНП «Косівська ЦРЛ» Косівської районної ради","Ivano-FrankIvska","KosIvskiy","m. KosIv, prov. Shevchenka, 27","01993546","48.320447474","25.110282902",0,5,0,20,0,0,0,0,0,"Not found"
2020-01-27,"КНП «Надвірнянська ЦРЛ» Надвірнянського району","Ivano-FrankIvska","NadvIrnyanskiy","m. NadvIrna, vul. Grushevskogo, 12","01993575","48.631076828","24.560301592",0,3,0,30,0,0,0,0,0,"Not found"
2020-01-27,"КНП «Новопсковське районне територіальне медичне об’єднання Новопсковської районної ради»","Luganska","Novopskovskiy","smt. Novopskov, vul. UkraYinska, 101A","01983594","49.547051830","39.092525694",0,3,0,15,0,0,0,0,0,"Not found"
2020-01-27,"КНП «Богородчанська ЦРЛ» Богородчанської районної ради","Ivano-FrankIvska","Bogorodchanskiy","smt. Bogorodchani, vul. Shevchenka, 35","01993351","48.811562078","24.544454903",0,2,0,20,0,0,0,0,0,"Not found"
2020-01-27,"КНП «Заболотівська районна лікарня  Заболотівської селищної ради»  ОТГ","Ivano-FrankIvska","Snyatinskiy","smt. ZabolotIv, vul. B.Hmelnitskogo, 10","01993629","48.468603515","25.284909822",0,1,0,20,0,0,0,0,0,"Not found"
2020-01-27,"КНП «Верховинська ЦРЛ» Верховинської районної ради","Ivano-FrankIvska","Verhovinskiy","smt. Verhovina, vul. Nevestyuka, bud. 2","01993374","48.155450710","24.811645698",0,0,0,10,0,0,0,0,0,"Not found"
2020-01-27,"8. КНП «Центральна районна лікарня Києво-Святошинської районної ради»","KiYivska","KiEvo-Svyatoshinskiy","m. Boyarka, vul. SobornostI, 51","01994669","50.330963777","30.276410608",0,18,0,40,0,0,0,0,0,"Not found"
2020-01-27,"КНП ""Центр первинної медико-санітарної допомоги Києво-Святошинського району""","KiYivska","KiEvo-Svyatoshinskiy","m. Boyarka, vul. SobornostI, 51","38943382","50.330963777","30.276410608",0,0,0,0,0,0,0,0,0,"Not found"
2020-01-27,"10. Комунальне некомерційне підприємство  «Броварська багатопрофільна клінічна лікарня» БРР БМР","KiYivska",NA,"m. Brovari, vul. Shevchenko, 14","01994497","50.510931013","30.764942274",0,14,0,31,0,0,0,0,0,"Not found"
2020-01-27,"КНП «Міловська центральна районна лікарня» Міловської районної ради Луганської області","Luganska","MIlovskiy","smt. MIlove, vul Mira, 44","01983571","49.379784131","40.135084285",0,2,0,20,0,0,0,0,0,"Not found"
2020-01-27,"7. Комунальне некомерційне підприємство Васильківської районної ради «Васильківська центральна районна лікарня»","KiYivska","VasilkIvskiy","m. VasilkIv, vul. DekabristIv, 87","01994385","50.201378217","30.312494273",0,8,0,34,0,0,0,0,0,"Not found"
2020-01-27,"12.Комунальне некомерційне підприємство Макарівської  районної ради «Баришівська центральна районна лікарня»","KiYivska","MakarIvskiy","m. MakarIv, vul. B.Hmelnitskogo, 62-A","01994698","57.88040","43.80724",0,7,0,4,0,0,0,0,0,"Not found"
2020-01-27,"13.Комунальне некомерційне підприємство Миронівської  районної ради «Миронівська центральна районна лікарня»","KiYivska","MironIvskiy","m. MironIvka, vul. BlagovIschenska, 96","01994149","49.677070683","30.979852801",0,7,0,15,0,0,0,0,0,"Not found"
2020-01-27,"Комунальне некомерційне підприємство ""Миргородська центральна районна лікарня""","Poltavska",NA,"m. Mirgorod, vul. Gogolya, 172","01999402","49.982615225","33.594493191",0,10,0,36,0,0,0,0,0,"Not found"
2020-01-27,"1. КОМУНАЛЬНАЛЬНЕ НЕКОМЕРЦІЙНЕ ПІДПРИЄМСТВОКИЇВСЬКОЇ ОБЛАСНОЇ РАДИ ""КИЇВСЬКА ОБЛАСНА ДИТЯЧА ЛІКАРНЯ""","KiYivska","KiEvo-Svyatoshinskiy","m. Boyarka, vul. Hreschatik, 83","01994451","50.318723071","30.295198377",0,5,0,15,0,0,0,0,0,"Not found"
2020-01-27,"2. Комунальне некомерційне підприємство Білоцерківської міської  ради «Білоцерківська міська лікарня № 3»","KiYivska",NA,"m. BIla Tserkva, vul. Karbisheva, 12","01994592","49.795975","30.137777",0,3,0,10,0,0,0,0,0,"Not found"
2020-01-27,"КНП ""Луганська обласна дитяча клінічна лікарня""","Luganska",NA,"m. Lisichansk, vul. 40 rokIv Peremogi, 12a","04542985","48.867455095","38.427812455",0,18,0,20,0,0,0,0,0,"Not found"
2020-01-27,"9. Комунальне некомерційне підприємство Кагарлицької  районної ради «Кагарлицька центральна районна лікарня»","KiYivska","Kagarlitskiy","m. Kagarlik, vul. Parkova, 10","01994416","49.862917580","30.823122500",0,3,0,10,0,0,0,0,0,"Not found"
2020-01-27,"Комунальне некомерційне підприємство ""Лохвицька районна лікарня Лохвицької районної ради""","Poltavska","Lohvitskiy","m. Lohvitsya, vul. NezalezhnostI, 4","01999359","50.358296001","33.282196184",0,10,0,15,0,0,0,0,0,"Not found"
2020-01-27,"Комунальне некомерційне підприємство""Лікарня інтенсивного лікування 1 рівня""","Poltavska",NA,"m. GorIshnI PlavnI, vul. Miru, 10","01999626","49.013946471","33.638797789",0,14,0,36,0,0,0,0,0,"Not found"
2020-01-27,"11.Комунальне некомерційне підприємство Баришівської  районної ради «Баришівська центральна районна лікарня»","KiYivska","BarishIvskiy","smt. BarishIvka, vul. KiYivskiy shlyah, 126","01994379","50.366249180","31.306350970",0,3,0,7,0,0,0,0,0,"Not found"
2020-01-27,"КНП ""Вишгородський районний центр первинної медико-санітарної допомоги""","KiYivska","Vishgorodskiy","m. Vishgorod, vul. Kurguzova, 1","38423901","50.581253814","30.476355722",0,0,0,0,0,0,0,0,0,"Not found"
2020-01-27,"КНП ""Бориспільська багатопрофільна лікарня інтенсивного лікування""","KiYivska",NA,"m. BorispIl, vul. Kotlyarevskogo, 1","01994132","50.348897","30.953436",0,0,0,0,0,0,0,0,0,"Not found"
2020-01-27,"КНП ""Білоцерківський пологовий будинок""","KiYivska",NA,"m. BIla Tserkva, vul. Semashko, 7","01994617","49.795975","30.137777",0,0,0,0,0,0,0,0,0,"Not found"
2020-01-27,"Комунальне некомерційне підприємство ""Кобеляцька центральна районна лікарня""","Poltavska","Kobelyatskiy","m. Kobelyaki, vul. Shevchenka, 78/109","01999307","49.152955506","34.182468216",0,6,0,23,0,0,0,0,0,"Not found"
2020-01-27,"КНП ""Ірпінська центральна міська лікарня""","KiYivska",NA,"m. IrpIn, vul. Sadova, 38","26191575","50.519799","30.235613",0,0,0,0,0,0,0,0,0,"Not found"
2020-01-27,"КНП ""Обухівський міський центр первинної медико-санітарної допомоги""","KiYivska",NA,"m. ObuhIv, vul. Kashtanova, 52","41012405","50.109731","30.630595",0,0,0,0,0,0,0,0,0,"Not found"
2020-01-27,"КНП ""Кіровоградська обласна лікарня Кіровоградської обласної ради","KIrovogradska",NA,"m. Kropivnitskiy, prosp. UnIversitetskiy, 2/5","01994942","48.505474289","32.219334424",0,20,0,30,0,0,0,0,0,"Not found"
2020-01-27,"КНП ""Київська обласна клінічна лікарня""","KiYivska",NA,"m. KiYiv, vul. BoggovutIvska, 1","01993701","50.447844985","30.524776820",0,0,0,0,0,0,0,0,0,"Not found"
2020-01-27,"Комунальне некомерційне підприємство ""Карлівська центральна районна лікарня ім.Л.В.Радевича","Poltavska","KarlIvskiy","m. KarlIvka, vul. Radevicha, 2","01999299","49.452839990","35.136305098",0,6,0,20,0,0,0,0,0,"Not found"
2020-01-27,"КНП «Ізмаїльська центральна районна лікарня» Ізмаїльської районної ради","Odeska","IzmaYilskiy","m. IzmaYil, vul. B.-DnIstrovska, 31","26418688","45.340310621","28.826934073",0,1,0,20,0,0,0,0,0,"Not found"
2020-01-27,"КНП ""Новороздільська міська лікарня""","LvIvska",NA,"m. Noviy RozdIl, vul. Vinnichenka, 37","20764314","49.46961","24.13861",0,0,0,0,0,0,0,0,0,"Not found"
2020-01-27,"Комунальне некомерційне підприємство ""Диканська лікарня планового лікування Диканської районної ради""","Poltavska","Dikanskiy","smt. Dikanka, vul. Medichna, 42","01999265","49.814970672","34.542040401",0,5,0,8,0,0,0,0,0,"Not found"
2020-01-27,"КНП ЛОР ""Львівська обласна інфекційна клінічна лікарня""","LvIvska",NA,"m. LvIv, vul. Pekarska, 54","01984263","49.832896304","24.050196072",1,10,0,410,1,1,0,0,0,"Suspicion"
2020-01-27,"КЗ ЛОР «Львівський обласний протитуберкульозний санаторій» (смт. Немирів) для обсервації","LvIvska","NemirIvskiy","smt. NemirIv, vul. Ravska, 45","22413286","50.117662512","23.440409794",0,0,0,150,0,0,0,0,0,"Not found"
2020-01-27,"КНП ""Клінічна лікарня №15 Подільського району міста Києва""","m. KiYiv",NA,"m. KiYiv, vul. Skovorodi, 2","26199074","50.447844985","30.524776820",0,0,0,0,0,0,0,0,0,"Not found"
2020-01-27,"Комунальне некомерційне підприємство ""Гадяцька центральна районна лікарня Гадяцької районної ради""","Poltavska",NA,"m.Gadyach, vul.Lohvitska,1","01999218","50.374586527","33.980915302",0,11,0,20,0,0,0,0,0,"Not found"
2020-01-27,"КНП ""Олександрівська клінічна лікарня""","m. KiYiv",NA,"m. KiYiv, vul. Shovkovichna, 39/1","01994095","50.447844985","30.524776820",0,52,0,82,0,0,0,0,0,"Not found"
2020-01-27,"КНП ""Київська міська клінічна лікарня №9""","m. KiYiv",NA,"m. KiYiv, vul. Rizka, 1","25680295","50.447844985","30.524776820",0,22,0,80,0,0,0,0,0,"Not found"
2020-01-27,"КНП""Київська міська клінічна лікарня №4""","m. KiYiv",NA,"m. KiYiv, vul. Solom'yanska, 17","30212155","50.447844985","30.524776820",0,18,0,75,0,0,0,0,0,"Not found"
2020-01-27,"КНП ""Київська міська дитяча клінічна лікарня №1""","m. KiYiv",NA,"m. KiYiv, vul. Bogatirska, 30","04350694","50.447844985","30.524776820",0,15,0,30,0,0,0,0,0,"Not found"
2020-01-27,"КНП ""Київський міський пологовий будинок № 5""","m. KiYiv",NA,"m. KiYiv, prosp. Lobanovskogo, 2","01993730","50.447844985","30.524776820",0,8,0,16,0,0,0,0,0,"Not found"
2020-01-27,"КНП ""Київський міський пологовий будинок № 3""","m. KiYiv",NA,"m. KiYiv, vul. Kuchera, 7","05496796","50.447844985","30.524776820",0,8,0,12,0,0,0,0,0,"Not found"
2020-01-27,"КНП ""Київська міська дитяча клінічна інфекційна лікарня""","m. KiYiv",NA,"m. KiYiv, vul. DegtyarIvska, 23","01993664","50.447844985","30.524776820",0,5,0,90,0,0,0,0,0,"Not found"
2020-01-27,"Комунальне некомерційне медичне підприємство ""Лікарня інтенсивного лікування ""Кременчуцька""","Poltavska",NA,"m. Kremenchuk, vul. Pavlova, 2","41318879","49.094332723","33.440751510",0,10,0,60,0,0,0,0,0,"Not found"
2020-01-27,"Київський міський центр репродуктивної та перинатальної медицини","m. KiYiv",NA,"m. KiYiv, pr-t. GeroYiv StalIngrada, 16","02124976","50.447844985","30.524776820",0,NA,0,45,0,0,0,0,0,"Not found"
2020-01-27,"Комунальне некомерційне медичне підприємство ""Кременчуцька міська дитяча лікарня""","Poltavska",NA,"m. Kremenchuk, vul. Pavlova,16","05385571","49.091859007","33.440592979",0,6,0,60,0,0,0,0,0,"Not found"
2020-01-27,"КНП ""Київська міська дитяча клінічна лікарня №2""","m. KiYiv",NA,"m. KiYiv, vul. Petra Zaporozhtsya, 26","05415941","50.447844985","30.524776820",0,NA,0,40,0,0,0,0,0,"Not found"
2020-01-27,"КНП ""Миколаївський обласний центр лікування інфекційних хвороб"" Миколаївської обласної ради","MikolaYivska",NA,"m. MikolaYiv, vul. KosmonavtIv, 43","43443474","46.936571275","32.035677703",0,5,0,150,0,0,0,0,0,"Not found"
2020-01-27,"КП ""Саратська центральна районна лікарня""","Odeska","Saratskiy","smt. Sarata, vul. Soborna, 2","01998880","46.019969","29.673707",0,0,0,0,0,0,0,0,0,"Not found"
2020-01-27,"КНП «Міська клінічна інфекційна лікарня» Одеської міської ради","Odeska",NA,"m. Odesa, vul. Pastera, 7","01999023","46.494542307","30.722628424",0,9,0,65,0,0,0,0,0,"Not found"
2020-01-27,"Комунальне некомерційне підприємство ""Новосанжарська центральна районна лікарня""","Poltavska","Novosanzharskiy","smt. NovI Sanzhari, vul.Shevchenka, 51/49","01999425","49.341192130","34.305587410",0,4,0,12,0,0,0,0,0,"Not found"
2020-01-27,"КНП ""Дубенська міська лікарня""","RIvnenska",NA,"m. Dubno, vul. LvIvska, 73","37624798","50.41879","25.74560",0,0,0,0,0,0,0,0,0,"Not found"
2020-01-27,"КП ""Рівненська обласна клінічна лікарня""","RIvnenska",NA,"m. RIvne, vul. KiYivska, 78G","02000010","50.61962","26.25132",0,0,0,0,0,0,0,0,0,"Not found"
2020-01-27,"КНП ""Центральна міська лікарня"" Рівненської міської ради","RIvnenska",NA,"m. RIvne, vul. Mikoli Karnauhova, 25-A","02000085","50.61962","26.25132",0,16,0,22,0,0,0,0,0,"Not found"
2020-01-27,"КНП ""Сарненська центральна районна лікарня"" Сарненської районної ради","RIvnenska","Sarnenskiy","m. Sarni, vul. Yaroslava Mudrogo, 3","01999796","51.333598611","26.592128810",0,6,0,6,0,0,0,0,0,"Not found"
2020-01-27,"КНП ""Охтирська  центральна районна лікарня""","Sumska",NA,"m. Ohtirka, vul. PetropavlIvska, 15","02007472","50.311392","34.888895",0,15,0,30,0,0,0,0,0,"Not found"
2020-01-27,"КНП ""Обласна дитяча клінічна лікарня""","Sumska",NA,"m. Sumi, vul. Kovpaka 22","03338126","50.90091","34.80877",0,15,0,35,0,0,0,0,0,"Not found"
2020-01-27,"Комунальне некомерційне підприємство Сумської обласної ради  ""Обласна дитяча  клінічна лікарня ""","Sumska",NA,"m. Sumi. vul. Kovpaka 22,","33381260","50.90091","34.80877",0,15,0,35,0,0,0,0,0,"Not found"
2020-01-27,"Комунальне некомерційне підприємство «Дитяча клінічна лікарня Святої Зінаїди»  Сумської міської ради","Sumska",NA,"m. Sumi. vul. TroYitska, 28","20003340","50.90091","34.80877",0,4,0,60,0,0,0,0,0,"Not found"
2020-01-27,"КНП ""Шосткинська центральна лікарня""","Sumska",NA,"m. Shostka, vul. SchedrIna, 1","01981514","51.871347139","33.466691271",0,4,0,32,0,0,0,0,0,"Not found"
2020-01-27,"КНП ""Буринська центральна районна лікарня ім. проф. М.П.Новаченка""","Sumska","Burinskiy","m. Burin, vul. Kutuzova,15.","02007495","51.19604","33.82880",0,2,0,15,0,0,0,0,0,"Not found"
2020-01-27,"Комунальне некомерційне підприємство Сумської обласної ради""Сумська обласна інфекційна клінічна лікарня ім.З.Й. Красовицького""","Sumska",NA,"m. Sumi, vul. 20 rokIv Peremogi, 15","14011007","50.90091","34.80877",0,2,0,60,0,0,0,0,0,"Not found"
2020-01-27,"КНП ""Клінічна лікарня № 4""","Sumska",NA,"m. Sumi, vul. MetalurgIv, 38","02000300","50.90091","34.80877",0,1,0,30,0,0,0,0,0,"Not found"
2020-01-27,"КНП ""Мельнице-Подільська селищна лікарня""","TernopIlska","BorschIvskiy","smt. Melnitsya-PodIlska, vul. NezalezhnostI, 24","02000501","48.607727","26.165785",0,0,0,0,0,0,0,0,0,"Not found"
2020-01-27,"КНП ""Теребовлянська центральна районна лікарня""","TernopIlska","Terebovlyanskiy","m. Terebovlya, vul. SIchovih StrIltsIv, 25","02001015","49.294617","25.690012",0,6,0,15,0,0,0,0,0,"Not found"
2020-01-27,"КНП ,,Гусятинська центральна районна лікарня”","TernopIlska","Gusyatinskiy","smt. Gusyatin, vul. B.Lepkogo, 1.","02000582","49.070716680","26.192286184",0,5,0,10,0,0,0,0,0,"Not found"
2020-01-27,"Комунальне некомерційне підприємство ,,Тернопільська міська комунальна лікарня швидкої допомоги”","TernopIlska",NA,"m. TernopIl, vul. Shpitalna, 2","02001297","49.549015699","25.599997729",0,5,0,50,0,0,0,0,0,"Not found"
2020-01-27,"КНП ,,Заліщицька центральна районна лікарня”","TernopIlska","ZalIschitskiy","m. ZalIschiki, vul. S.Banderi, 86","02000659","48.648755186","25.731850323",0,4,0,10,0,0,0,0,0,"Not found"
2020-01-27,"Комунальне некомерційне підприємство ,,Тернопільська міська дитяча комунальна лікарня”","TernopIlska",NA,"m. TernopIl, vul. KlInIchna, 1a","04528442","49.553719391","25.614177984",0,4,0,50,0,0,0,0,0,"Not found"
2020-01-27,"КНП ""Збаразька центральна лікарня""","TernopIlska","Zbarazkiy","m. Zbarazh, vul. Pavlova, 2","02000702","49.661065768","25.790736349",0,3,0,15,0,0,0,0,0,"Not found"
2020-01-27,"КНП ""Лановецька центральна районна лікарня""","TernopIlska","Lanovetskiy","m. LanIvtsI, vul. Shevchenka, bud. 30","02000903","49.878955103","26.089423105",0,2,0,10,0,0,0,0,0,"Not found"
2020-01-27,"КНП ""Чортківська центральна комунальна районна лікарня""","TernopIlska",NA,"m. ChortkIv, vul. D.PIguti, 31b","02001185","49.016131284","25.790493707",0,0,0,34,0,0,0,0,0,"Not found"
2020-01-27,"КОМУНАЛЬНЕ НЕКОМЕРЦІЙНЕ ПІДПРИЄМСТВО ХАРКІВСЬКОЇ ОБЛАСНОЇ РАДИ ""ОБЛАСНА КЛІНІЧНА ІНФЕКЦІЙНА ЛІКАРНЯ""","HarkIvska",NA,"m. HarkIv, prosp. GeroYiv StalIngradu, 160","02003652","49.943510208","36.322295620",0,12,0,60,0,0,0,0,0,"Not found"
2020-01-27,"КОМУНАЛЬНЕ НЕКОМЕРЦІЙНЕ ПІДПРИЄМСТВО ХАРКІВСЬКОЇ ОБЛАСНОЇ РАДИ ""ОБЛАСНА ДИТЯЧА ІНФЕКЦІЙНА КЛІНІЧНА ЛІКАРНЯ""","HarkIvska",NA,"m. HarkIv, prosp. GeroYiv StalIngradu, 160","02003534","49.943510208","36.322295620",0,7,0,45,0,0,0,0,0,"Not found"
2020-01-27,"КНП ""Харківське обласне бюро судово-медичної експертизи""","HarkIvska",NA,"m. HarkIv, vul. DmitrIvska, 18","02001937","49.988371219","36.213895907",0,0,0,0,0,0,0,0,0,"Not found"
2020-01-27,"КНП ""Каховська центральна районна лікарня""","Hersonska",NA,"m. Kahovka, vul. Pershotravneva, 34","02004025","46.80546","33.48178",0,0,0,0,0,0,0,0,0,"Not found"
2020-01-27,"м. Берислав, вул. 1 Травня, 124","Hersonska","Berislavskiy","m. Berislav, vul. 1 Travnya, 124","02003913","46.83878","33.41400",0,0,0,0,0,0,0,0,0,"Not found"
2020-01-27,"КНП ""Скадовська центральна районна лікарня""","Hersonska","Skadovskiy","m. Skadovsk, vul. ShmIdta, 24","02004060","46.12039","32.91034",0,0,0,0,0,0,0,0,0,"Not found"
2020-01-27,"КНП ""Генічеська центральна районна лікарня""","Hersonska","GenIcheskiy","m. GenIchesk, prosp. Miru, 130","02003971","46.17380","34.80686",0,0,0,0,0,0,0,0,0,"Not found"
2020-01-27,"КНП ""Центральна міська лікарня міста Нова Каховка""","Hersonska",NA,"m. Nova Kahovka, vul GeroYiv UkraYini, 33-A","02004108","46.751108","33.366097",0,0,0,0,0,0,0,0,0,"Not found"
2020-01-27,"КНП «Херсонська обласна інфекційна лікарня                                    ім. Г.І. Горбачевського»","Hersonska",NA,"m. Herson, vul. Mikoli Grinka, 1a","26083704","46.679001190","32.587874301",0,5,0,141,0,0,0,0,0,"Not found"
2020-01-27,"КП ""Хмельницька міська інфекційна лікарня""Хмельницької міської ради","Hmelnitska",NA,"m. Hmelnitskiy , vul. G.Skovorodi, 17","02004752","49.412003019","26.976054715",0,6,0,40,0,0,0,0,0,"Not found"
2020-01-27,"КНП „Черкаська міська інфекційна лікарня“","Cherkaska",NA,"m. Cherkasi, vul. SamIyla KIshki, 210/1","02004976","49.413566386","32.055020909",0,2,0,100,0,0,0,0,0,"Not found"
2020-01-27,"КНП „Уманська міська лікарня“ Уманської міської ради","Cherkaska",NA,"m. Uman, prov. ProYizdzhiy, 3","02005036","48.759549076","30.221513818",0,1,0,35,0,0,0,0,0,"Not found"
2020-01-27,"ОБЛАСНЕ КОМУНАЛЬНЕ НЕКОМЕРЦІЙНЕ ПІДПРИЄМСТВО ЧЕРНІВЕЦЬКА ОБЛАСНА КЛІНІЧНА ЛІКАРНЯ","ChernIvetska",NA,"m. ChernIvtsI, vul. Golovna, 137","43288621","48.292097","25.931513",0,9,0,40,0,0,0,0,0,"Not found"
2020-01-27,"КНП ""Хотинська центральна районна лікарня""","ChernIvetska",NA,"m. Hotin, vul. B. Hmelnitskogo, 4","02005875","48.505179108","26.498052462",0,5,0,20,0,0,0,0,0,"Not found"
2020-01-27,"КНП ""Сокирянська центральна районна лікарня""","ChernIvetska","Sokiryanskiy","m.Sokiryani, vul. KobilyanskoYi, 43","02005852","48.463446","27.405207",0,4,0,15,0,0,0,0,0,"Not found"
2020-01-27,"ОБЛАСНЕ КОМУНАЛЬНЕ НЕКОМЕРЦІЙНЕ ПІДПРИЄМСТВО ""ЧЕРНІВЕЦЬКА ОБЛАСНА ДИТЯЧА КЛІНІЧНА ЛІКАРНЯ""","ChernIvetska",NA,"m. ChernIvtsI, vul. Ruska, 207-A","43291042","48.292097","25.931513",0,3,0,18,0,0,0,0,0,"Not found"
2020-01-27,"КНП ""Глибоцька центральна районна лікарня""","ChernIvetska","Glibotskiy","m. Gliboka, vul. Shevchenka, 11","02005705","48.120261","25.923078",0,2,0,35,0,0,0,0,0,"Not found"
2020-01-27,"КОМУНАЛЬНЕ НЕКОМЕРЦІЙНЕ ПІДПРИЄМСТВО КІЦМАНСЬКА ЦЕНТРАЛЬНА РАЙОННА ЛІКАРНЯ","ChernIvetska","KItsmanskiy","m. KItsman, vul. NezalezhnostI, 1","02005680","48.430486437","25.761756464",0,2,0,30,0,0,0,0,0,"Not found"
2020-01-27,"КНП ""Новоселицька центральна районна лікарня""","ChernIvetska","Novoselitskiy","m. Novoselitsya, vul. KaramzIna, 1","02005832","48.221677063","26.271495614",0,0,0,20,0,0,0,0,0,"Not found"
2020-01-27,"КНП «Чернігівська міська лікарня №2»Чернігівської міської ради","ChernIgIvska",NA,"m. ChernIgIv, vul. I Travnya, 168/b","14233274","51.517221809","31.309575589",0,17,0,45,0,0,0,0,0,"Not found"
2020-01-27,"КНП «Чернігівська обласна дитяча лікарня» Чернігівської обласної ради","ChernIgIvska",NA,"m. ChernIgIv, vul. Pirogova, 16","02006604","51.497760421","31.281648920",0,14,0,14,0,0,0,0,0,"Not found"
2020-01-27,"КНП ""Прилуцька центральна міська лікарня""","ChernIgIvska",NA,"m. Priluki, vul. KiYivska, 56","34549336","50.594958416","32.381415524",0,8,0,20,0,0,0,0,0,"Not found"
2020-01-27,"КНП ""Менська центральна районна лікарня""","ChernIgIvska","Menskiy","m. Mena, vul. Shevchenka, 61","02006343","51.531047946","32.228168513",0,5,0,4,0,0,0,0,0,"Not found"
2020-01-27,"КНП ""Козелецька центральна районна лікарня""","ChernIgIvska","Kozeletskiy","smt. Kozelets, vul. SIm'Yi Rozumovskih, 45","02006277","50.911818260","31.117207288",0,5,0,5,0,0,0,0,0,"Not found"
2020-01-27,"КНП ""Семенівська центральна районна лікарня""","ChernIgIvska","SemenIvskiy",NA,"02006509","52.178496616","32.569911551",0,5,0,13,0,0,0,0,0,"Not found"
2020-01-27,"КНП ""Борзнянська центральна районна лікарня""","ChernIgIvska","Borznyanskiy","m. Borzna, vul. Semena PalIya, 22","02006188","51.259334053","32.421852846",0,3,0,15,0,0,0,0,0,"Not found"
2020-01-27,"КНП ""Городнянська центральна районна лікарня""","ChernIgIvska","Gorodnyanskiy","m. Gorodnya, vul. ChernIgIvska, 26","02006225","51.888223699","31.596235269",0,3,0,2,0,0,0,0,0,"Not found"
2020-01-27,"КНП ""Корюківська центральна районна лікарня""","ChernIgIvska","KoryukIvskiy","m. KoryukIvka, vul. Shevchenka, 101","02006320","51.773605503","32.247797148",0,3,0,2,0,0,0,0,0,"Not found"
2020-01-27,"КНП ""Ніжинська центральна міська лікарня імені Миколи Галицького""","ChernIgIvska",NA,"m. NIzhin, vul. Moskovska, 21","02774125","51.060422772","31.892132100",0,3,0,12,0,0,0,0,0,"Not found"
2020-01-27,"КНП ""Чернігівська центральна районна лікарня""","ChernIgIvska",NA,"m. ChernIgIv, vul. Shevchenka, 114","02006544","51.507857394","31.337379322",0,2,0,30,0,0,0,0,0,"Not found"
2020-01-27,"КНП ""Новгород-Сіверська центральна районна лікарня імені І.В.Буяльського""","ChernIgIvska",NA,NA,"02006403","52.001529704","33.275005671",0,3,0,3,0,0,0,0,0,"Not found"
2020-01-27,"КНП ""Варвинська центральна районна лікарня""","ChernIgIvska","Varvinskiy","smt. Varva, vul. 9 Travnya, 2A","02006194","50.488566577","32.719745606",0,2,0,5,0,0,0,0,0,"Not found"
2020-01-27,"КНП ""Талалаївська центральна районна лікарня""","ChernIgIvska","TalalaYivskiy","smt. TalalaYivka, vul. Tsentralna, 63","02006538","50.834737082","33.137191377",0,2,0,10,0,0,0,0,0,"Not found"
2020-01-27,"КНП ""Ріпкинська центральна районна лікарня""","ChernIgIvska","RIpkinskiy","smt. RIpki, vul. Soborna, 9","02006478","51.802508164","31.083601483",0,1,0,15,0,0,0,0,0,"Not found"
2020-01-27,"КП ""Козятинська центральна районна лікарня""","VInnitska","Kozyatinskiy","s. Kozyatin, vul. Tsentralna, 96","35814729","49.740895","28.837369",0,0,0,0,0,0,0,0,0,"Not found"
2020-01-27,"КП ""Луцька міська клінічна лікарня""","Volinska",NA,"m. Lutsk, prosp. VIdrodzhennya, 13","01982985","50.74507","25.32008",0,0,0,0,0,0,0,0,0,"Not found"
2020-01-27,"КНП ""Хорошівська центральна районна лікарня""","Zhitomirska","HoroshIvskiy","s. Toporische, vul. Zhitomirska, 86-A","01991607","50.566570","28.642219",0,0,0,0,0,0,0,0,0,"Not found"
2020-01-27,"КНП ""Лікарня №2 ім. В.П.Павлусенка""","Zhitomirska",NA,"m. Zhitomir, vul. Romana Shuhevicha, 2-A","42789136","50.255794","28.659639",0,0,0,0,0,0,0,0,0,"Not found"
2020-01-27,"КНП ""Козівська центральна районна лікарня""","TernopIlska","KozIvskiy","smt. Kozova, vul. Zelena, 19","02000792","49.430667","25.157631",0,0,0,0,0,0,0,0,0,"Not found"
2020-01-27,"КНП ""Міська лікарня №1""","ChernIvetska",NA,"m. ChernIvtsI, vul. GeroYiv Maydanu, 226","01110972","48.292097","25.931513",0,0,0,0,0,0,0,0,0,"Not found"
2020-01-27,"КНП ""Київська міська клінічна лікарня №5""","m. KiYiv",NA,"m. KiYiv, vul. VIdpochinku, 11","00185028","50.447844985","30.524776820",0,0,0,0,0,0,0,0,0,"Not found"
2020-01-27,"КНП ""Київська міська клінічна лікарня №8""","m. KiYiv",NA,"m. KiYiv, vul. YurIya Kondratyuka, 8","05497146","50.447844985","30.524776820",0,0,0,0,0,0,0,0,0,"Not found"
2020-01-27,"КНП ""Монастирська центральна районна лікарня""","TernopIlska","Monastiriskiy","m. Monastiriska, vul. Shevchenka, 29","36338715","49.088970","25.161867",0,0,0,0,0,0,0,0,0,"Not found"
2020-01-28,"КНП ""Бершадська окружна лікарня інтенсивного лікування""","VInnitska","Bershadskiy","m. Bershad, vul. Budkevicha, 2","01982494","48.363830569","29.511209145",0,13,0,20,0,0,0,0,0,"Not found"
2020-01-28,"КНП «Ямпільська ЦРЛ»","VInnitska","YampIlskiy","m. YampIl, vul. Pirogova,1","01982726","48.247685881","28.278572814",0,11,0,6,0,0,0,0,0,"Not found"
2020-01-28,"КНП «Вінницька міська клінічна лікарня №1»","VInnitska",NA,"m. VInnitsya, vul. Hmelnitske shose, 96","05484126","49.236347324","28.414002928",0,11,0,12,0,0,0,0,0,"Not found"
2020-01-28,"КНП ""Хмільницька центральна районна лікарня""","VInnitska",NA,"m. HmIlnik, vul. Monastirska, 71","01982695","49.553637292","27.948236991",0,9,0,4,0,0,0,0,0,"Not found"
2020-01-28,"КНП ""Вінницька центральна районна клінічна лікарня""","VInnitska",NA,"m. VInnitsya, Hmelnitske shose, 92","01982502","49.235508","28.414243",0,6,0,16,0,0,0,0,0,"Not found"
2020-01-28,"КНП ""Могилів-Подільська обласна лікарня інтенсивного лікування""","VInnitska","MogilIv-PodIlskiy","m. MogilIv-PodIlskiy, vul. Poltavska, 89/2","01982591","48.458001084","27.771482977",0,4,0,6,0,0,0,0,0,"Not found"
2020-01-28,"КНП «Крижопільська ОЛІЛ»","VInnitska","KrizhopIlskiy","smt. KrizhopIl, vul. Danila Nechaya, 10","01982560","48.383047974","28.873021153",0,3,0,4,0,0,0,0,0,"Not found"
2020-01-28,"КНП ""Шаргородська центральна районна лікарня""","VInnitska","Shargorodskiy","m. Shargorod, vul. Parhomenko, 9","33868196","48.74983","28.08317",0,3,0,20,0,0,0,0,0,"Not found"
2020-01-28,"КНП «Вінницька обласна дитяча інфекційна клінічна лікарня»","VInnitska",NA,"m. VInnitsya, vul. KiYivska, 68","34004453","49.250053205","28.476839183",0,3,0,55,0,0,0,0,0,"Not found"
2020-01-28,"КНП ""Жмеринська центральна районна лікарня""","VInnitska",NA,"m. Zhmerinka, vul. KiYivska, 288","37261811","49.061009","28.119112",0,3,0,2,0,0,0,0,0,"Not found"
2020-01-28,"КНП ""Немирівська центральна районна лікарня""","VInnitska","NemirIvskiy","m. NemirIv, vul. Evdokimenka, 21","01982614","48.974671","28.844196",0,3,0,10,0,0,0,0,0,"Not found"
2020-01-28,"КНП «Піщанська ЦРЛ»","VInnitska","PIschanskiy","smt. PIschanka, vul. Tsentralna,42","01982620","48.210431793","28.884156165",0,1,0,2,0,0,0,0,0,"Not found"
2020-01-28,"КП ""Волинська обласна клінічна лікарня""","Volinska",NA,"m. Lutsk, prosp. Prezidenta Grushevskogo, 21","01983163","50.74507","25.32008",0,0,0,0,0,0,0,0,0,"Not found"
2020-01-28,"КНП ""Іваничівська центральна районна лікарня""","Volinska","IvanichIvskiy","smt. IvanichI, vul. Grushevskogo, 45","01982904","50.63777","24.35917",0,0,0,0,0,0,0,0,0,"Not found"
2020-01-28,"КНП ""Ковельське міськрайонне територіальне медичне об'єднання""","Volinska",NA,"m. Kovel, vul. Oleni PchIlki, 4","01982940","51.213658141","24.712902655",0,12,0,8,0,0,0,0,0,"Not found"
2020-01-28,"КНП ""Нововолинська центральна міська лікарня""","Volinska",NA,"m. Novovolinsk, prosp. Peremogi, 7","01983016","50.724657282","24.172172515",0,11,0,6,0,0,0,0,0,"Not found"
2020-01-28,"КП ""Воолинський обласний перинатальний центр"" Волинської обласної ради","Volinska",NA,"m. Lutsk, vul. Zagorodnya, 20","42078561","50.74507","25.32008",0,9,0,2,0,0,0,0,0,"Not found"
2020-01-28,"КП ""Луцька центральна районна лікарня""","Volinska","Lutskiy","s. Lipini, vul. TeremnIvska, 100","01983134","50.764280","25.393923",0,9,0,20,0,0,0,0,0,"Not found"
2020-01-28,"КП""Маневицька центральна районна лікарня""","Volinska","Manevitskiy","smt. ManevichI, vul. NezalezhnostI, 1","01983186","51.290636","25.561194",0,9,0,20,0,0,0,0,0,"Not found"
2020-01-28,"КНП ""Камінь-Каширська центральна районна лікарня""","Volinska","KamIn-Kashirskiy","m. KamIn-Kashirsk, vul. Shevchenka, 43","01983051","51.631262443","24.951863920",0,7,0,4,0,0,0,0,0,"Not found"
2020-01-28,"КНП ""Горохівська центральна районна лікарня""","Volinska","GorohIvskiy","m. GorohIv, vul. Parkova, 22","01982896","50.496364","24.762261",0,6,0,20,0,0,0,0,0,"Not found"
2020-01-28,"КП ""Волинська обласна інфекційна лікарня"" Волинської обласної ради","Volinska",NA,"m. Lutsk, vul. Shevchenka, 30","03398983","50.74507","25.32008",0,5,0,16,0,0,0,0,0,"Not found"
2020-01-28,"КП ""Кверцівське районне територіальне медичне об'єднання""","Volinska","KIvertsIvskiy","m. KIvertsI, vul. FIlatova, 6","38856054","50.832340","25.457025",0,2,0,15,0,0,0,0,0,"Not found"
2020-01-28,"КНП „Міська клінічна лікарня № 21 імені проф. Є.Г. Попкової ” Дніпровської міської ради","DnIpropetrovska",NA,"m. DnIpro, vul. Kanatna, 17","01984659","48.462218030","35.003954116",0,6,0,180,0,0,0,0,0,"Not found"
2020-01-28,"КНП „Криворізька інфекційна лікарня № 1”  Криворізької міської ради","DnIpropetrovska",NA,"m. Kriviy RIg, vul. YurIya KamInskogo, 5","01986115","47.903169071","33.388954027",0,3,0,180,0,0,0,0,0,"Not found"
2020-01-28,"КОМУНАЛЬНЕ НЕКОМЕРЦІЙНЕ ПІДПРИЄМСТВО МАРІУПОЛЬСЬКОЇ МІСЬКОЇ РАДИ ""МАРІУПОЛЬСЬКА МІСЬКА ЛІКАРНЯ № 4 ІМ. І.К. МАЦУКА""","Donetska",NA,"m. MarIupol, vul. Pashkovskogo, 4","01990654","47.110023873","37.632926587",0,7,0,130,0,0,0,0,0,"Not found"
2020-01-28,"КОМУНАЛЬНЕ НЕКОМЕРЦІЙНЕ ПІДПРИЄМСТВО МАРІУПОЛЬСЬКОЇ МІСЬКОЇ РАДИ ""МАРІУПОЛЬСЬКА МІСЬКА ЛІКАРНЯ ШВИДКОЇ МЕДИЧНОЇ ДОПОМОГИ""","Donetska",NA,"m. MarIupol, vul. Bahmutska, 20-A","01990660","47.115768286","37.547935870",0,6,0,40,0,0,0,0,0,"Not found"
2020-01-28,"КОМУНАЛЬНЕ НЕКОМЕРЦІЙНЕ ПІДПРИЄМСТВО ""ІНФЕКЦІЙНА ЛІКАРНЯ М.КОСТЯНТИНІВКА""","Donetska",NA,"m. KostyantinIvka, vul. Evropeyska, 17","03096940","48.499353083","37.686972210",0,2,0,90,0,0,0,0,0,"Not found"
2020-01-28,"КОМУНАЛЬНЕ НЕКОМЕРЦІЙНЕ ПІДПРИЄМСТВО ""ІНФЕКЦІЙНА ЛІКАРНЯ М. МИРНОГРАД""","Donetska",NA,"m. Mirnograd, prov. TolbuhIna, 44","31338129","48.268806571","37.276419820",0,1,0,75,0,0,0,0,0,"Not found"
2020-01-28,"КНП ""Ємільчинська центральна районна лікарня""","Zhitomirska","EmIlchinskiy","smt. EmIlchine, vul 1 travnya, 133","01991659","50.87253","27.80708",0,0,0,0,0,0,0,0,0,"Not found"
2020-01-28,"КНП ""Овруцька міська лікарня""","Zhitomirska","Ovrutskiy","m. Ovruch, vul. Tarasa Shevchenka, 106","42435766","51.32598","28.80267",0,0,0,0,0,0,0,0,0,"Not found"
2020-01-28,"КНП ""Бердичівська міська лікарня""","Zhitomirska",NA,"m. BerdichIv, vul. Zdorov’ya, 1","01992015","49.901759","28.586652",0,16,0,16,0,0,0,0,0,"Not found"
2020-01-28,"Комунальне підприємство «Лікарня №1» Житомирської міської ради","Zhitomirska",NA,"m. Zhitomir, vul. Velika BerdichIvska, 70","42788614","50.255794","28.659639",0,16,0,40,0,0,0,0,0,"Not found"
2020-01-28,"КНП «Житомирська обласна дитяча клінічна лікарня» Житомирської обласної ради","Zhitomirska","Zhitomirskiy","s. StanIshIvka, Skvirske shose, 6","02774119","50.230535527","28.687190713",0,9,0,36,0,0,0,0,0,"Not found"
2020-01-28,"КНП ""Андрушівська центральна районна лікарня""","Zhitomirska","AndrushIvskiy","m. AndrushIvka, vul. TItova, 34","01991547","50.029632767","29.019907729",0,5,0,6,0,0,0,0,0,"Not found"
2020-01-28,"КНП ""Центральна районна лікарня ім. Д.І.Потєхіна""","Zhitomirska","KorostishIvskiy","m. KorostishIv, vul. GeroYiv NebesnoYi SotnI, 58","01991731","50.314039127","29.057025776",0,5,0,2,0,0,0,0,0,"Not found"
2020-01-28,"КНП ""Коростенська центральна міська лікарня""","Zhitomirska",NA,"m. Korosten, vul. M.Amosova, 8","01992050","50.94929","28.64162",0,4,0,9,0,0,0,0,0,"Not found"
2020-01-28,"КНП ""Новоград-Волинське міськрайонне територіальне медичне об'єднання""","Zhitomirska",NA,"m. Novograd-Volinskiy, vul. NatalIYi OrzhevskoYi, 13","01991820","50.585629291","27.607596661",0,4,0,55,0,0,0,0,0,"Not found"
2020-01-28,"КНП ""Народицька лікарня""","Zhitomirska","Naroditskiy","smt. NarodichI, vul. Zamkova, 115","42739284","51.199922272","29.086159986",0,0,0,2,0,0,0,0,0,"Not found"
2020-01-28,"КНП «Радомишльська лікарня» Радомишльської міської ради","Zhitomirska","Radomishlskiy","m. Radomishl, vul. Prisutstvenna, 9","01991903","50.503096625","29.240794035",0,NA,0,15,0,0,0,0,0,"Not found"
2020-01-28,"КП ""Дитяча лікарня імені В.Й. Башека""","Zhitomirska",NA,"m. Zhitomir, vul. Svyatoslava RIhtera, 23","42779217","50.255794","28.659639",0,NA,0,4,0,0,0,0,0,"Not found"
2020-01-28,"КНП «Обласна клінічна інфекційна лікарня» Закарпатської обласної ради»","Zakarpatska",NA,"m. Uzhgorod, vul.GriboEdova, 20a","26464978","48.638118013","22.282963181",0,6,0,100,0,0,0,0,0,"Not found"
2020-01-28,"КНП ""ТМО ""БЛІЛ та швидкої мед.допомоги"" ММР ЗО (відокремлений підрозділ ""Інфекційна лікарня"")","ZaporIzka",NA,"m. MelItopol, vul. KIzIyarska,38","05498720","46.865809024","35.395828325",0,20,0,100,0,0,0,0,0,"Not found"
2020-01-28,"КНП БМР ""Бердянське територіальне медичне об'єднання""","ZaporIzka",NA,"m. Berdyansk, vul. Konsulska, 23","39029713","46.760974884","36.786884491",0,19,0,40,0,0,0,0,0,"Not found"
2020-01-28,"КНП ""Дніпрорудненська БМЛ"" ДМР ВР ЗО","ZaporIzka","VasilIvskiy","m. DnIprorudne, vul. Zelena, 2","02005131","47.389688873","35.010935204",0,8,0,30,0,0,0,0,0,"Not found"
2020-01-28,"КНП ""Мелітопольська ЦРЛ"" МРР ЗО","ZaporIzka",NA,"m. MelItopol, vul.KIzIyarska,55","01992877","46.871115695","35.394588602",0,8,0,32,0,0,0,0,0,"Not found"
2020-01-28,"КНП "" Пологівська БЛІЛ"" ПРР ЗО","ZaporIzka","PologIvskiy","m. Pologi, vul. Im. Geroya UkraYini Satskogo V.A.,6 / vul. I.Chuberka, 90","01992972","47.481971585","36.247797685",0,8,0,26,0,0,0,0,0,"Not found"
2020-01-28,"КНП ""Якимівська ЦРЛ"" ЯСР ЗО","ZaporIzka","YakimIvskiy","smt. YakimIvka, vul. Tsentralna, 30","01993032","46.707021478","35.168084902",0,8,0,25,0,0,0,0,0,"Not found"
2020-01-28,"КНП ""Кам'янська-Дніпровська ЦРЛ"" КДРРР ЗО","ZaporIzka",NA,"m. Kam'yanka-DnIprovska, vul Naberezhna, 130","01992854","47.487090103","34.416736211",0,6,0,27,0,0,0,0,0,"Not found"
2020-01-28,"КП ""Приморська ЦРЛ"" ПРР ЗО","ZaporIzka","Primorskiy","m. Primorsk, vul. Morska, 74","01992989","46.724143180","36.358452487",0,5,0,12,0,0,0,0,0,"Not found"
2020-01-28,"КП ""Веселівська БЛІЛ"" ВРР","ZaporIzka","VeselIvskiy","smt. Vesele, vul. Gorkogo, 2A","41955911","47.018487189","34.908776219",0,5,0,10,0,0,0,0,0,"Not found"
2020-01-28,"КНП ""Гуляпільська ЦРЛ"" ГРР ЗО","ZaporIzka","GulyaypIlskiy","m. Gulyay-Pole, vul. Soborna, 107-b","01992937","47.665744415","36.258833592",0,4,0,20,0,0,0,0,0,"Not found"
2020-01-28,"КНП ""Спеціалізована медико-санітарна частина""ЕМР","ZaporIzka",NA,"m. Energodar, vul. BudIvelnikIv, 33","42594137","47.501506722","34.634185914",0,4,0,30,0,0,0,0,0,"Not found"
2020-01-28,"КУ ""Обласна інфекційна клінічна лікарня"" ЗОР","ZaporIzka",NA,"m. ZaporIzhzhya, bul. GvardIyskiy, 142","05498849","47.838633","35.160926",0,4,0,46,0,0,0,0,0,"Not found"
2020-01-28,"КП ""Токмацька БЛІЛ"" ТМР","ZaporIzka",NA,"m. Tokmak, vul. Tsentralna, 55M","41477873","47.255713330","35.708740805",0,4,0,15,0,0,0,0,0,"Not found"
2020-01-28,"КНП ""Оріхівська БЛІЛ"" ОРР ЗО","ZaporIzka","OrIhIvskiy","m. OrIhIv, vul. Parkova, 2","01992953","47.566440571","35.786295504",0,3,0,31,0,0,0,0,0,"Not found"
2020-01-28,"Клініка ""Мотор-Січ""","ZaporIzka",NA,"m. ZaporIzhzhya, vul. Bryullova, 6","31507969","47.827833","35.203717",0,2,0,0,0,0,0,0,0,"Not found"
2020-01-28,"ТОВ ""Вітацентр""","ZaporIzka",NA,"m. ZaporIzhzhya, vul. SEdova, 3","35183119","47.838633","35.160926",0,1,0,0,0,0,0,0,0,"Not found"
2020-01-28,"КНП ""Центр первинної медико-санітарної допомоги №2""","ZaporIzka",NA,"m. MelItopol, vul. IndustrIalna, 89","38761806","46.850039","35.343226",0,1,0,0,0,0,0,0,0,"Not found"
2020-01-28,"КНП ""Центр первинної медико-санітарної допомоги № 8""","ZaporIzka",NA,"m. ZaporIzhzhya, vul. Harchova, 2","38783662","47.838633","35.160926",0,1,0,0,0,0,0,0,0,"Not found"
2020-01-28,"КНП ""Запорізький центр первинної медико-санітарної допомоги №1""","ZaporIzka",NA,"m. ZaporIzhzhya, prosp. Soborniy, 88","38969725","47.820423","35.173109",0,0,0,0,0,0,0,0,0,"Not found"
2020-01-28,"КНП ""Нововасилівська РЛ"" ПРР ЗО","ZaporIzka","Priazovskiy","smt. NovovasilIvka, vul. Poshtova, 75","24908721","46.829166996","35.755278000",0,0,0,20,0,0,0,0,0,"Not found"
2020-01-28,"КНП ""Центр первинної медико-санітарної допомоги № 6""","ZaporIzka",NA,"m. ZaporIzhzhya, vul. Chumachenko, 21","38969678","47.782566","35.229527",0,0,0,0,0,0,0,0,0,"Not found"
2020-01-28,"КНП ""Городенківська центральна районна лікарня""","Ivano-FrankIvska","GorodenkIvskiy","m. Gorodenka, vul. Sheptitskogo, 24-E","01993428","48.664415124","25.491961338",0,6,0,10,0,0,0,0,0,"Not found"
2020-01-28,"КНП ""Івано-Франківська обласна клінічна інфекційна лікарня”","Ivano-FrankIvska",NA,"m. Ivano-FrankIvsk, vul. Getmana Sagaydachnogo, 66","01993291","48.938635828","24.719539985",0,6,0,170,0,0,0,0,0,"Not found"
2020-01-28,"КНП «Долинська багатопрофільна лікарня» Долинської  районної ради Івано-Франківської області","Ivano-FrankIvska","Dolinskiy","m. Dolina, vul. Oksani Gritsey, 15","01993457","48.972304717","23.992965630",0,6,0,20,0,0,0,0,0,"Not found"
2020-01-28,"КНП «Рожнятівська ЦРЛ» Рожнятівської районної ради","Ivano-FrankIvska","RozhnyatIvskiy","smt. RozhnyatIv, vul. ShkIlna, 17","01993612","48.933955175","24.147874990",0,6,0,20,0,0,0,0,0,"Not found"
2020-01-28,"КНП «Косівська ЦРЛ» Косівської районної ради","Ivano-FrankIvska","KosIvskiy","m. KosIv, prov. Shevchenka, 27","01993546","48.320447474","25.110282902",0,5,0,20,0,0,0,0,0,"Not found"
2020-01-28,"КНП «Яремчанська ЦМЛ» Яремчанської міської ради","Ivano-FrankIvska",NA,"m. Yaremche, vul. Dovbusha, 5","01993552","48.429582000","24.576655019",0,3,0,10,0,0,0,0,0,"Not found"
2020-01-28,"КНП «Надвірнянська ЦРЛ» Надвірнянського району","Ivano-FrankIvska","NadvIrnyanskiy","m. NadvIrna, vul. Grushevskogo, 12","01993575","48.631076828","24.560301592",0,3,0,30,0,0,0,0,0,"Not found"
2020-01-28,"КНП «Богородчанська ЦРЛ» Богородчанської районної ради","Ivano-FrankIvska","Bogorodchanskiy","smt. Bogorodchani, vul. Shevchenka, 35","01993351","48.811562078","24.544454903",0,2,0,20,0,0,0,0,0,"Not found"
2020-01-28,"КНП «Заболотівська районна лікарня  Заболотівської селищної ради»  ОТГ","Ivano-FrankIvska","Snyatinskiy","smt. ZabolotIv, vul. B.Hmelnitskogo, 10","01993629","48.468603515","25.284909822",0,1,0,20,0,0,0,0,0,"Not found"
2020-01-28,"КНП «Верховинська ЦРЛ» Верховинської районної ради","Ivano-FrankIvska","Verhovinskiy","smt. Verhovina, vul. Nevestyuka, bud. 2","01993374","48.155450710","24.811645698",0,0,0,10,0,0,0,0,0,"Not found"
2020-01-28,"Коломийська районна інфекційна лікарня","Ivano-FrankIvska",NA,"m. Kolomiya, vul. Simona Petlyuri, 66","31575286","48.536837196","25.045357525",0,0,0,60,0,0,0,0,0,"Not found"
2020-01-28,"КНП «Районна лікарня Калуської районної ради","Ivano-FrankIvska",NA,"m. Kalush, vul. Karakaya, 25","33271905","49.018029815","24.350981701",0,0,0,25,0,0,0,0,0,"Not found"
2020-01-28,"8. КНП «Центральна районна лікарня Києво-Святошинської районної ради»","KiYivska","KiEvo-Svyatoshinskiy","m. Boyarka, vul. SobornostI, 51","01994669","50.330963777","30.276410608",0,18,0,40,0,0,0,0,0,"Not found"
2020-01-28,"10. Комунальне некомерційне підприємство  «Броварська багатопрофільна клінічна лікарня» БРР БМР","KiYivska",NA,"m. Brovari, vul. Shevchenko, 14","01994497","50.510931013","30.764942274",0,14,0,31,0,0,0,0,0,"Not found"
2020-01-28,"7. Комунальне некомерційне підприємство Васильківської районної ради «Васильківська центральна районна лікарня»","KiYivska","VasilkIvskiy","m. VasilkIv, vul. DekabristIv, 87","01994385","50.201378217","30.312494273",0,8,0,34,0,0,0,0,0,"Not found"
2020-01-28,"12.Комунальне некомерційне підприємство Макарівської  районної ради «Баришівська центральна районна лікарня»","KiYivska","MakarIvskiy","m. MakarIv, vul. B.Hmelnitskogo, 62-A","01994698","57.88040","43.80724",0,7,0,4,0,0,0,0,0,"Not found"
2020-01-28,"13.Комунальне некомерційне підприємство Миронівської  районної ради «Миронівська центральна районна лікарня»","KiYivska","MironIvskiy","m. MironIvka, vul. BlagovIschenska, 96","01994149","49.677070683","30.979852801",0,7,0,15,0,0,0,0,0,"Not found"
2020-01-28,"1. КОМУНАЛЬНАЛЬНЕ НЕКОМЕРЦІЙНЕ ПІДПРИЄМСТВОКИЇВСЬКОЇ ОБЛАСНОЇ РАДИ ""КИЇВСЬКА ОБЛАСНА ДИТЯЧА ЛІКАРНЯ""","KiYivska","KiEvo-Svyatoshinskiy","m. Boyarka, vul. Hreschatik, 83","01994451","50.318723071","30.295198377",0,5,0,15,0,0,0,0,0,"Not found"
2020-01-28,"3. Комунальне некомерційне підприємство Таращанської районної ради «Таращанська центральна районна лікарня»","KiYivska","Taraschanskiy","m. Tarascha, vul. Shevchenka, 66","01994215","49.557990888","30.499331485",0,5,0,5,0,0,0,0,0,"Not found"
2020-01-28,"2. Комунальне некомерційне підприємство Білоцерківської міської  ради «Білоцерківська міська лікарня № 3»","KiYivska",NA,"m. BIla Tserkva, vul. Karbisheva, 12","01994592","49.795975","30.137777",0,3,0,10,0,0,0,0,0,"Not found"
2020-01-28,"9. Комунальне некомерційне підприємство Кагарлицької  районної ради «Кагарлицька центральна районна лікарня»","KiYivska","Kagarlitskiy","m. Kagarlik, vul. Parkova, 10","01994416","49.862917580","30.823122500",0,3,0,10,0,0,0,0,0,"Not found"
2020-01-28,"6. Комунальне некомерційне підприємство Переяслав-Хмельницької районної ради, Переяслівської міської ради і сільських районних рад Перея","KiYivska",NA,"m. Pereyaslav, vul. Bogdana Hmelnitskogo, 137","01994161","50.064280878","31.440849524",0,3,0,10,0,0,0,0,0,"Not found"
2020-01-28,"4. Комунальне підприємство «Комунальне некомерційне підприємство Тетіївська центральна районна лікарня»","KiYivska","TetIYivskiy","m. TetIYiv, vul. TsvItkova, 26","00994221","49.363398827","29.684158174",0,3,0,10,0,0,0,0,0,"Not found"
2020-01-28,"5. Комунальне некомерційне підприємство «Яготинська центральна районна лікарня» Яготинської районної ради","KiYivska","Yagotinskiy","m. Yagotin, vul. NezalezhnostI, 71","01994422","50.270673524","31.763791993",0,3,0,20,0,0,0,0,0,"Not found"
2020-01-28,"11.Комунальне некомерційне підприємство Баришівської  районної ради «Баришівська центральна районна лікарня»","KiYivska","BarishIvskiy","smt. BarishIvka, vul. KiYivskiy shlyah, 126","01994379","50.366249180","31.306350970",0,3,0,7,0,0,0,0,0,"Not found"
2020-01-28,"КНП ""Центр первинної медико-санітарної допомоги Києво-Святошинського району""","KiYivska","KiEvo-Svyatoshinskiy","m. Boyarka, vul. SobornostI, 51","38943382","50.330963777","30.276410608",0,0,0,0,0,0,0,0,0,"Not found"
2020-01-28,"КНП ""Вишгородський районний центр первинної медико-санітарної допомоги""","KiYivska","Vishgorodskiy","m. Vishgorod, vul. Kurguzova, 1","38423901","50.581253814","30.476355722",0,0,0,0,0,0,0,0,0,"Not found"
2020-01-28,"КНП ""Бориспільська багатопрофільна лікарня інтенсивного лікування""","KiYivska",NA,"m. BorispIl, vul. Kotlyarevskogo, 1","01994132","50.348897","30.953436",0,0,0,0,0,0,0,0,0,"Not found"
2020-01-28,"КНП ""Білоцерківський пологовий будинок""","KiYivska",NA,"m. BIla Tserkva, vul. Semashko, 7","01994617","49.795975","30.137777",0,0,0,0,0,0,0,0,0,"Not found"
2020-01-28,"КНП ""Ірпінська центральна міська лікарня""","KiYivska",NA,"m. IrpIn, vul. Sadova, 38","26191575","50.519799","30.235613",0,0,0,0,0,0,0,0,0,"Not found"
2020-01-28,"КНП ""Обухівський міський центр первинної медико-санітарної допомоги""","KiYivska",NA,"m. ObuhIv, vul. Kashtanova, 52","41012405","50.109731","30.630595",0,0,0,0,0,0,0,0,0,"Not found"
2020-01-28,"КНП ""Київська обласна клінічна лікарня""","KiYivska",NA,"m. KiYiv, vul. BoggovutIvska, 1","01993701","50.447844985","30.524776820",0,0,0,0,0,0,0,0,0,"Not found"
2020-01-28,"КНП ""Кіровоградська обласна лікарня Кіровоградської обласної ради","KIrovogradska",NA,"m. Kropivnitskiy, prosp. UnIversitetskiy, 2/5","01994942","48.505474289","32.219334424",0,20,0,30,0,0,0,0,0,"Not found"
2020-01-28,"КНП ""Центральна міська лікарня Кіровоградської міської ради, стаціонар №1""","KIrovogradska",NA,"m. Kropivnitskiy, vul. Fortetsya, 21","05493846","48.508331380","32.266261029",0,6,0,135,0,0,0,0,0,"Not found"
2020-01-28,"КНП «Сєвєродонецької міської багатопрофільної лікарні» Сєвєродонецької міської ради","Luganska",NA,"m. SEvErodonetsk, vul. Egorova, 2b","37747995","48.958906083","38.490041527",0,23,0,60,0,0,0,0,0,"Not found"
2020-01-28,"КНП ""Луганська обласна дитяча клінічна лікарня""","Luganska",NA,"m. Lisichansk, vul. 40 rokIv Peremogi, 12a","04542985","48.867455095","38.427812455",0,18,0,20,0,0,0,0,0,"Not found"
2020-01-28,"КНП «Старобільське  районне територіальне медичне об’єднання» Старобільської районної ради","Luganska","StarobIlskiy","m. StarobIlsk, vul Monostirska, 67","01983714","49.281546728","38.897801128",0,10,0,30,0,0,0,0,0,"Not found"
2020-01-28,"КНП «Рубіжанська центральна міська лікарня» Рубіжанської міської ради Луганської області","Luganska",NA,"m. RubIzhne, vul. Studentska, 19","01983683","49.024594188","38.357225009",0,6,0,30,0,0,0,0,0,"Not found"
2020-01-28,"КНП «Новопсковське районне територіальне медичне об’єднання Новопсковської районної ради»","Luganska","Novopskovskiy","smt. Novopskov, vul. UkraYinska, 101A","01983594","49.547051830","39.092525694",0,3,0,15,0,0,0,0,0,"Not found"
2020-01-28,"КНП «Міловська центральна районна лікарня» Міловської районної ради Луганської області","Luganska","MIlovskiy","smt. MIlove, vul Mira, 44","01983571","49.379784131","40.135084285",0,2,0,20,0,0,0,0,0,"Not found"
2020-01-28,"КНП «Станично-Луганське районне  територіальне медичне об’єднання».","Luganska","Stanichno-Luganskiy","smt. Stanitsya Luganska, vul. 5-ta lInIya, 39","01983602","48.665545929","39.501912720",0,2,0,20,0,0,0,0,0,"Not found"
2020-01-28,"КНП ""Новороздільська міська лікарня""","LvIvska",NA,"m. Noviy RozdIl, vul. Vinnichenka, 37","20764314","49.46961","24.13861",0,0,0,0,0,0,0,0,0,"Not found"
2020-01-28,"КНП ЛОР ""Львівська обласна інфекційна клінічна лікарня""","LvIvska",NA,"m. LvIv, vul. Pekarska, 54","01984263","49.832896304","24.050196072",1,10,0,410,1,0,0,0,0,"Suspicion"
2020-01-28,"КЗ ЛОР «Львівський обласний протитуберкульозний санаторій» (смт. Немирів) для обсервації","LvIvska","NemirIvskiy","smt. NemirIv, vul. Ravska, 45","22413286","50.117662512","23.440409794",0,0,0,150,0,0,0,0,0,"Not found"
2020-01-28,"КНП ""Клінічна лікарня №15 Подільського району міста Києва""","m. KiYiv",NA,"m. KiYiv, vul. Skovorodi, 2","26199074","50.447844985","30.524776820",0,0,0,0,0,0,0,0,0,"Not found"
2020-01-28,"КНП ""Олександрівська клінічна лікарня""","m. KiYiv",NA,"m. KiYiv, vul. Shovkovichna, 39/1","01994095","50.447844985","30.524776820",0,52,0,82,0,0,0,0,0,"Not found"
2020-01-28,"КНП ""Київська міська клінічна лікарня №9""","m. KiYiv",NA,"m. KiYiv, vul. Rizka, 1","25680295","50.447844985","30.524776820",0,22,0,80,0,0,0,0,0,"Not found"
2020-01-28,"КНП""Київська міська клінічна лікарня №4""","m. KiYiv",NA,"m. KiYiv, vul. Solom'yanska, 17","30212155","50.447844985","30.524776820",0,18,0,75,0,0,0,0,0,"Not found"
2020-01-28,"КНП ""Київська міська дитяча клінічна лікарня №1""","m. KiYiv",NA,"m. KiYiv, vul. Bogatirska, 30","04350694","50.447844985","30.524776820",0,15,0,30,0,0,0,0,0,"Not found"
2020-01-28,"КНП ""Київський міський пологовий будинок № 5""","m. KiYiv",NA,"m. KiYiv, prosp. Lobanovskogo, 2","01993730","50.447844985","30.524776820",0,8,0,16,0,0,0,0,0,"Not found"
2020-01-28,"КНП ""Київський міський пологовий будинок № 3""","m. KiYiv",NA,"m. KiYiv, vul. Kuchera, 7","05496796","50.447844985","30.524776820",0,8,0,12,0,0,0,0,0,"Not found"
2020-01-28,"КНП ""Київська міська дитяча клінічна інфекційна лікарня""","m. KiYiv",NA,"m. KiYiv, vul. DegtyarIvska, 23","01993664","50.447844985","30.524776820",0,5,0,90,0,0,0,0,0,"Not found"
2020-01-28,"Київський міський центр репродуктивної та перинатальної медицини","m. KiYiv",NA,"m. KiYiv, pr-t. GeroYiv StalIngrada, 16","02124976","50.447844985","30.524776820",0,NA,0,45,0,0,0,0,0,"Not found"
2020-01-28,"КНП ""Київська міська дитяча клінічна лікарня №2""","m. KiYiv",NA,"m. KiYiv, vul. Petra Zaporozhtsya, 26","05415941","50.447844985","30.524776820",0,NA,0,40,0,0,0,0,0,"Not found"
2020-01-28,"КНП ""Миколаївський обласний центр лікування інфекційних хвороб"" Миколаївської обласної ради","MikolaYivska",NA,"m. MikolaYiv, vul. KosmonavtIv, 43","43443474","46.936571275","32.035677703",0,5,0,150,0,0,0,0,0,"Not found"
2020-01-28,"КП ""Саратська центральна районна лікарня""","Odeska","Saratskiy","smt. Sarata, vul. Soborna, 2","01998880","46.019969","29.673707",0,0,0,0,0,0,0,0,0,"Not found"
2020-01-28,"КНП «Міська клінічна інфекційна лікарня» Одеської міської ради","Odeska",NA,"m. Odesa, vul. Pastera, 7","01999023","46.494542307","30.722628424",0,9,0,65,0,0,0,0,0,"Not found"
2020-01-28,"КНП «Чорноморська лікарня» Чорноморської міської ради Одеської області","Odeska",NA,"m. Chornomorsk, vul. VItalIya Shuma, 4","01982212","46.295223575","30.648085507",0,3,0,24,0,0,0,0,0,"Not found"
2020-01-28,"КНП «Ізмаїльська центральна районна лікарня» Ізмаїльської районної ради","Odeska","IzmaYilskiy","m. IzmaYil, vul. B.-DnIstrovska, 31","26418688","45.340310621","28.826934073",0,1,0,20,0,0,0,0,0,"Not found"
2020-01-28,"Комунальне некомерційне підприємство""Лікарня інтенсивного лікування 1 рівня""","Poltavska",NA,"m. GorIshnI PlavnI, vul. Miru, 10","01999626","49.013946471","33.638797789",0,14,0,36,0,0,0,0,0,"Not found"
2020-01-28,"Комунальне некомерційне підприємство ""Гадяцька центральна районна лікарня Гадяцької районної ради""","Poltavska",NA,"m.Gadyach, vul.Lohvitska,1","01999218","50.374586527","33.980915302",0,11,0,20,0,0,0,0,0,"Not found"
2020-01-28,"Комунальне некомерційне медичне підприємство ""Лікарня інтенсивного лікування ""Кременчуцька""","Poltavska",NA,"m. Kremenchuk, vul. Pavlova, 2","41318879","49.094332723","33.440751510",0,10,0,60,0,0,0,0,0,"Not found"
2020-01-28,"Комунальне некомерційне підприємство ""Лохвицька районна лікарня Лохвицької районної ради""","Poltavska","Lohvitskiy","m. Lohvitsya, vul. NezalezhnostI, 4","01999359","50.358296001","33.282196184",0,10,0,15,0,0,0,0,0,"Not found"
2020-01-28,"Комунальне підприємство ""Лубенська лікарня інтенсивного лікування Лубенської міської ради""","Poltavska",NA,"m. Lubni, vul.P'yatikopa, 26","01999388","50.002157494","32.991827393",0,10,0,18,0,0,0,0,0,"Not found"
2020-01-28,"Комунальне некомерційне підприємство ""Миргородська центральна районна лікарня""","Poltavska",NA,"m. Mirgorod, vul. Gogolya, 172","01999402","49.982615225","33.594493191",0,10,0,36,0,0,0,0,0,"Not found"
2020-01-28,"Комунальне підприємство ""1 міська клінічна лікарня Полтаської міської ради","Poltavska",NA,"m. Poltava, vul. O.Gonchara, 27a","01999655","49.586655905","34.525052180",0,10,0,40,0,0,0,0,0,"Not found"
2020-01-28,"Комунальне підприємства ""Полтавська обласна клінічна інфекційна лікарня Полтавської обласної ради""","Poltavska",NA,"m. Poltava, prosp. Pershotravneviy, 22","01999661","49.576349995","34.564835021",0,9,0,152,0,0,0,0,0,"Not found"
2020-01-28,"Комунальне некомерційне підприємство ""Хорольська центральна районна лікарня""","Poltavska","Horolskiy","m. Horol, vul. M.Polonskogo, 11/1","01999514","49.779586591","33.271094877",0,8,0,3,0,0,0,0,0,"Not found"
2020-01-28,"Комунальне некомерційне підприємство ""Карлівська центральна районна лікарня ім.Л.В.Радевича","Poltavska","KarlIvskiy","m. KarlIvka, vul. Radevicha, 2","01999299","49.452839990","35.136305098",0,6,0,20,0,0,0,0,0,"Not found"
2020-01-28,"Комунальне некомерційне підприємство ""Кобеляцька центральна районна лікарня""","Poltavska","Kobelyatskiy","m. Kobelyaki, vul. Shevchenka, 78/109","01999307","49.152955506","34.182468216",0,6,0,23,0,0,0,0,0,"Not found"
2020-01-28,"Комунальне некомерційне медичне підприємство ""Кременчуцька міська дитяча лікарня""","Poltavska",NA,"m. Kremenchuk, vul. Pavlova,16","05385571","49.091859007","33.440592979",0,6,0,60,0,0,0,0,0,"Not found"
2020-01-28,"Комунальне некомерційне підприємство ""Решетилівська центральна районна лікарня Решетилівської районної ради""","Poltavska","ReshetilIvskiy","m. ReshetilIvka, vul. Grushevskogo, 76","01999483","49.560667993","34.061639278",0,5,0,22,0,0,0,0,0,"Not found"
2020-01-28,"Комунальне некомерційне підприємство ""Диканська лікарня планового лікування Диканської районної ради""","Poltavska","Dikanskiy","smt. Dikanka, vul. Medichna, 42","01999265","49.814970672","34.542040401",0,5,0,8,0,0,0,0,0,"Not found"
2020-01-28,"Комунальне некомерційне підприємство ""Чутівська центральна районна лікарня""","Poltavska","ChutIvskiy","smt. Chutove, vul. Poltavskiy shlyah, 23","01999537","49.703233582","35.145434977",0,5,0,9,0,0,0,0,0,"Not found"
2020-01-28,"Комунальне підприємство ""Пирятинська центральна районна лікарня Пирятинської районної ради""","Poltavska","Piryatinskiy","m. Piryatin, vul. Avruschenka, 2","01999460","50.251286617","32.506312506",0,4,0,2,0,0,0,0,0,"Not found"
2020-01-28,"Комунальне некомерційне підприємство ""Новосанжарська центральна районна лікарня""","Poltavska","Novosanzharskiy","smt. NovI Sanzhari, vul.Shevchenka, 51/49","01999425","49.341192130","34.305587410",0,4,0,12,0,0,0,0,0,"Not found"
2020-01-28,"КНП ""Дубенська міська лікарня""","RIvnenska",NA,"m. Dubno, vul. LvIvska, 73","37624798","50.41879","25.74560",0,0,0,0,0,0,0,0,0,"Not found"
2020-01-28,"КП ""Рівненська обласна клінічна лікарня""","RIvnenska",NA,"m. RIvne, vul. KiYivska, 78G","02000010","50.61962","26.25132",0,0,0,0,0,0,0,0,0,"Not found"
2020-01-28,"КНП ""Центральна міська лікарня"" Рівненської міської ради","RIvnenska",NA,"m. RIvne, vul. Mikoli Karnauhova, 25-A","02000085","50.61962","26.25132",0,16,0,22,0,0,0,0,0,"Not found"
2020-01-28,"КНП ""Сарненська центральна районна лікарня"" Сарненської районної ради","RIvnenska","Sarnenskiy","m. Sarni, vul. Yaroslava Mudrogo, 3","01999796","51.333598611","26.592128810",0,6,0,6,0,0,0,0,0,"Not found"
2020-01-28,"КНП ""Охтирська  центральна районна лікарня""","Sumska",NA,"m. Ohtirka, vul. PetropavlIvska, 15","02007472","50.311392","34.888895",0,15,0,30,0,0,0,0,0,"Not found"
2020-01-28,"КНП ""Обласна дитяча клінічна лікарня""","Sumska",NA,"m. Sumi, vul. Kovpaka 22","03338126","50.90091","34.80877",0,15,0,35,0,0,0,0,0,"Not found"
2020-01-28,"Комунальне некомерційне підприємство Сумської обласної ради  ""Обласна дитяча  клінічна лікарня ""","Sumska",NA,"m. Sumi. vul. Kovpaka 22,","33381260","50.90091","34.80877",0,15,0,35,0,0,0,0,0,"Not found"
2020-01-28,"Комунальне некомерційне підприємство «Дитяча клінічна лікарня Святої Зінаїди»  Сумської міської ради","Sumska",NA,"m. Sumi. vul. TroYitska, 28","20003340","50.90091","34.80877",0,4,0,60,0,0,0,0,0,"Not found"
2020-01-28,"КНП ""Шосткинська центральна лікарня""","Sumska",NA,"m. Shostka, vul. SchedrIna, 1","01981514","51.871347139","33.466691271",0,4,0,32,0,0,0,0,0,"Not found"
2020-01-28,"КНП ""Буринська центральна районна лікарня ім. проф. М.П.Новаченка""","Sumska","Burinskiy","m. Burin, vul. Kutuzova,15.","02007495","51.19604","33.82880",0,2,0,15,0,0,0,0,0,"Not found"
2020-01-28,"Комунальне некомерційне підприємство Сумської обласної ради""Сумська обласна інфекційна клінічна лікарня ім.З.Й. Красовицького""","Sumska",NA,"m. Sumi, vul. 20 rokIv Peremogi, 15","14011007","50.90091","34.80877",0,2,0,60,0,0,0,0,0,"Not found"
2020-01-28,"КНП ""Клінічна лікарня № 4""","Sumska",NA,"m. Sumi, vul. MetalurgIv, 38","02000300","50.90091","34.80877",0,1,0,30,0,0,0,0,0,"Not found"
2020-01-28,"КНП ""Мельнице-Подільська селищна лікарня""","TernopIlska","BorschIvskiy","smt. Melnitsya-PodIlska, vul. NezalezhnostI, 24","02000501","48.607727","26.165785",0,0,0,0,0,0,0,0,0,"Not found"
2020-01-28,"КНП ""Теребовлянська центральна районна лікарня""","TernopIlska","Terebovlyanskiy","m. Terebovlya, vul. SIchovih StrIltsIv, 25","02001015","49.294617","25.690012",0,6,0,15,0,0,0,0,0,"Not found"
2020-01-28,"КНП ,,Гусятинська центральна районна лікарня”","TernopIlska","Gusyatinskiy","smt. Gusyatin, vul. B.Lepkogo, 1.","02000582","49.070716680","26.192286184",0,5,0,10,0,0,0,0,0,"Not found"
2020-01-28,"Комунальне некомерційне підприємство ,,Тернопільська міська комунальна лікарня швидкої допомоги”","TernopIlska",NA,"m. TernopIl, vul. Shpitalna, 2","02001297","49.549015699","25.599997729",0,5,0,50,0,0,0,0,0,"Not found"
2020-01-28,"КНП ,,Заліщицька центральна районна лікарня”","TernopIlska","ZalIschitskiy","m. ZalIschiki, vul. S.Banderi, 86","02000659","48.648755186","25.731850323",0,4,0,10,0,0,0,0,0,"Not found"
2020-01-28,"Комунальне некомерційне підприємство ,,Тернопільська міська дитяча комунальна лікарня”","TernopIlska",NA,"m. TernopIl, vul. KlInIchna, 1a","04528442","49.553719391","25.614177984",0,4,0,50,0,0,0,0,0,"Not found"
2020-01-28,"КНП ""Збаразька центральна лікарня""","TernopIlska","Zbarazkiy","m. Zbarazh, vul. Pavlova, 2","02000702","49.661065768","25.790736349",0,3,0,15,0,0,0,0,0,"Not found"
2020-01-28,"КНП ""Лановецька центральна районна лікарня""","TernopIlska","Lanovetskiy","m. LanIvtsI, vul. Shevchenka, bud. 30","02000903","49.878955103","26.089423105",0,2,0,10,0,0,0,0,0,"Not found"
2020-01-28,"КНП ""Чортківська центральна комунальна районна лікарня""","TernopIlska",NA,"m. ChortkIv, vul. D.PIguti, 31b","02001185","49.016131284","25.790493707",0,0,0,34,0,0,0,0,0,"Not found"
2020-01-28,"КОМУНАЛЬНЕ НЕКОМЕРЦІЙНЕ ПІДПРИЄМСТВО ХАРКІВСЬКОЇ ОБЛАСНОЇ РАДИ ""ОБЛАСНА КЛІНІЧНА ІНФЕКЦІЙНА ЛІКАРНЯ""","HarkIvska",NA,"m. HarkIv, prosp. GeroYiv StalIngradu, 160","02003652","49.943510208","36.322295620",0,12,0,60,0,0,0,0,0,"Not found"
2020-01-28,"КОМУНАЛЬНЕ НЕКОМЕРЦІЙНЕ ПІДПРИЄМСТВО ХАРКІВСЬКОЇ ОБЛАСНОЇ РАДИ ""ОБЛАСНА ДИТЯЧА ІНФЕКЦІЙНА КЛІНІЧНА ЛІКАРНЯ""","HarkIvska",NA,"m. HarkIv, prosp. GeroYiv StalIngradu, 160","02003534","49.943510208","36.322295620",0,7,0,45,0,0,0,0,0,"Not found"
2020-01-28,"КНП ""Харківське обласне бюро судово-медичної експертизи""","HarkIvska",NA,"m. HarkIv, vul. DmitrIvska, 18","02001937","49.988371219","36.213895907",0,0,0,0,0,0,0,0,0,"Not found"
2020-01-28,"КНП ""Каховська центральна районна лікарня""","Hersonska",NA,"m. Kahovka, vul. Pershotravneva, 34","02004025","46.80546","33.48178",0,0,0,0,0,0,0,0,0,"Not found"
2020-01-28,"м. Берислав, вул. 1 Травня, 124","Hersonska","Berislavskiy","m. Berislav, vul. 1 Travnya, 124","02003913","46.83878","33.41400",0,0,0,0,0,0,0,0,0,"Not found"
2020-01-28,"КНП ""Скадовська центральна районна лікарня""","Hersonska","Skadovskiy","m. Skadovsk, vul. ShmIdta, 24","02004060","46.12039","32.91034",0,0,0,0,0,0,0,0,0,"Not found"
2020-01-28,"КНП ""Генічеська центральна районна лікарня""","Hersonska","GenIcheskiy","m. GenIchesk, prosp. Miru, 130","02003971","46.17380","34.80686",0,0,0,0,0,0,0,0,0,"Not found"
2020-01-28,"КНП ""Центральна міська лікарня міста Нова Каховка""","Hersonska",NA,"m. Nova Kahovka, vul GeroYiv UkraYini, 33-A","02004108","46.751108","33.366097",0,0,0,0,0,0,0,0,0,"Not found"
2020-01-28,"КНП «Херсонська обласна інфекційна лікарня                                    ім. Г.І. Горбачевського»","Hersonska",NA,"m. Herson, vul. Mikoli Grinka, 1a","26083704","46.679001190","32.587874301",0,5,0,141,0,0,0,0,0,"Not found"
2020-01-28,"КП ""Хмельницька міська інфекційна лікарня""Хмельницької міської ради","Hmelnitska",NA,"m. Hmelnitskiy , vul. G.Skovorodi, 17","02004752","49.412003019","26.976054715",0,6,0,40,0,0,0,0,0,"Not found"
2020-01-28,"КНП „Черкаська міська інфекційна лікарня“","Cherkaska",NA,"m. Cherkasi, vul. SamIyla KIshki, 210/1","02004976","49.413566386","32.055020909",0,2,0,100,0,0,0,0,0,"Not found"
2020-01-28,"КНП „Уманська міська лікарня“ Уманської міської ради","Cherkaska",NA,"m. Uman, prov. ProYizdzhiy, 3","02005036","48.759549076","30.221513818",0,1,0,35,0,0,0,0,0,"Not found"
2020-01-28,"ОБЛАСНЕ КОМУНАЛЬНЕ НЕКОМЕРЦІЙНЕ ПІДПРИЄМСТВО ЧЕРНІВЕЦЬКА ОБЛАСНА КЛІНІЧНА ЛІКАРНЯ","ChernIvetska",NA,"m. ChernIvtsI, vul. Golovna, 137","43288621","48.292097","25.931513",0,9,0,40,0,0,0,0,0,"Not found"
2020-01-28,"КНП ""Хотинська центральна районна лікарня""","ChernIvetska",NA,"m. Hotin, vul. B. Hmelnitskogo, 4","02005875","48.505179108","26.498052462",0,5,0,20,0,0,0,0,0,"Not found"
2020-01-28,"КНП ""Сокирянська центральна районна лікарня""","ChernIvetska","Sokiryanskiy","m.Sokiryani, vul. KobilyanskoYi, 43","02005852","48.463446","27.405207",0,4,0,15,0,0,0,0,0,"Not found"
2020-01-28,"ОБЛАСНЕ КОМУНАЛЬНЕ НЕКОМЕРЦІЙНЕ ПІДПРИЄМСТВО ""ЧЕРНІВЕЦЬКА ОБЛАСНА ДИТЯЧА КЛІНІЧНА ЛІКАРНЯ""","ChernIvetska",NA,"m. ChernIvtsI, vul. Ruska, 207-A","43291042","48.292097","25.931513",0,3,0,18,0,0,0,0,0,"Not found"
2020-01-28,"КНП ""Глибоцька центральна районна лікарня""","ChernIvetska","Glibotskiy","m. Gliboka, vul. Shevchenka, 11","02005705","48.120261","25.923078",0,2,0,35,0,0,0,0,0,"Not found"
2020-01-28,"КОМУНАЛЬНЕ НЕКОМЕРЦІЙНЕ ПІДПРИЄМСТВО КІЦМАНСЬКА ЦЕНТРАЛЬНА РАЙОННА ЛІКАРНЯ","ChernIvetska","KItsmanskiy","m. KItsman, vul. NezalezhnostI, 1","02005680","48.430486437","25.761756464",0,2,0,30,0,0,0,0,0,"Not found"
2020-01-28,"КНП ""Новоселицька центральна районна лікарня""","ChernIvetska","Novoselitskiy","m. Novoselitsya, vul. KaramzIna, 1","02005832","48.221677063","26.271495614",0,0,0,20,0,0,0,0,0,"Not found"
2020-01-28,"КНП «Чернігівська міська лікарня №2»Чернігівської міської ради","ChernIgIvska",NA,"m. ChernIgIv, vul. I Travnya, 168/b","14233274","51.517221809","31.309575589",0,17,0,45,0,0,0,0,0,"Not found"
2020-01-28,"КНП «Чернігівська обласна дитяча лікарня» Чернігівської обласної ради","ChernIgIvska",NA,"m. ChernIgIv, vul. Pirogova, 16","02006604","51.497760421","31.281648920",0,14,0,14,0,0,0,0,0,"Not found"
2020-01-28,"КНП ""Прилуцька центральна міська лікарня""","ChernIgIvska",NA,"m. Priluki, vul. KiYivska, 56","34549336","50.594958416","32.381415524",0,8,0,20,0,0,0,0,0,"Not found"
2020-01-28,"КНП ""Менська центральна районна лікарня""","ChernIgIvska","Menskiy","m. Mena, vul. Shevchenka, 61","02006343","51.531047946","32.228168513",0,5,0,4,0,0,0,0,0,"Not found"
2020-01-28,"КНП ""Семенівська центральна районна лікарня""","ChernIgIvska","SemenIvskiy",NA,"02006509","52.178496616","32.569911551",0,5,0,13,0,0,0,0,0,"Not found"
2020-01-28,"КНП ""Козелецька центральна районна лікарня""","ChernIgIvska","Kozeletskiy","smt. Kozelets, vul. SIm'Yi Rozumovskih, 45","02006277","50.911818260","31.117207288",0,5,0,5,0,0,0,0,0,"Not found"
2020-01-28,"КНП ""Борзнянська центральна районна лікарня""","ChernIgIvska","Borznyanskiy","m. Borzna, vul. Semena PalIya, 22","02006188","51.259334053","32.421852846",0,3,0,15,0,0,0,0,0,"Not found"
2020-01-28,"КНП ""Городнянська центральна районна лікарня""","ChernIgIvska","Gorodnyanskiy","m. Gorodnya, vul. ChernIgIvska, 26","02006225","51.888223699","31.596235269",0,3,0,2,0,0,0,0,0,"Not found"
2020-01-28,"КНП ""Корюківська центральна районна лікарня""","ChernIgIvska","KoryukIvskiy","m. KoryukIvka, vul. Shevchenka, 101","02006320","51.773605503","32.247797148",0,3,0,2,0,0,0,0,0,"Not found"
2020-01-28,"КНП ""Ніжинська центральна міська лікарня імені Миколи Галицького""","ChernIgIvska",NA,"m. NIzhin, vul. Moskovska, 21","02774125","51.060422772","31.892132100",0,3,0,12,0,0,0,0,0,"Not found"
2020-01-28,"КНП ""Новгород-Сіверська центральна районна лікарня імені І.В.Буяльського""","ChernIgIvska",NA,NA,"02006403","52.001529704","33.275005671",0,3,0,3,0,0,0,0,0,"Not found"
2020-01-28,"КНП ""Чернігівська центральна районна лікарня""","ChernIgIvska",NA,"m. ChernIgIv, vul. Shevchenka, 114","02006544","51.507857394","31.337379322",0,2,0,30,0,0,0,0,0,"Not found"
2020-01-28,"КНП ""Варвинська центральна районна лікарня""","ChernIgIvska","Varvinskiy","smt. Varva, vul. 9 Travnya, 2A","02006194","50.488566577","32.719745606",0,2,0,5,0,0,0,0,0,"Not found"
2020-01-28,"КНП ""Талалаївська центральна районна лікарня""","ChernIgIvska","TalalaYivskiy","smt. TalalaYivka, vul. Tsentralna, 63","02006538","50.834737082","33.137191377",0,2,0,10,0,0,0,0,0,"Not found"
2020-01-28,"КНП ""Ріпкинська центральна районна лікарня""","ChernIgIvska","RIpkinskiy","smt. RIpki, vul. Soborna, 9","02006478","51.802508164","31.083601483",0,1,0,15,0,0,0,0,0,"Not found"
2020-01-28,"КП ""Козятинська центральна районна лікарня""","VInnitska","Kozyatinskiy","s. Kozyatin, vul. Tsentralna, 96","35814729","49.740895","28.837369",0,0,0,0,0,0,0,0,0,"Not found"
2020-01-28,"КП ""Луцька міська клінічна лікарня""","Volinska",NA,"m. Lutsk, prosp. VIdrodzhennya, 13","01982985","50.74507","25.32008",0,0,0,0,0,0,0,0,0,"Not found"
2020-01-28,"КНП ""Хорошівська центральна районна лікарня""","Zhitomirska","HoroshIvskiy","s. Toporische, vul. Zhitomirska, 86-A","01991607","50.566570","28.642219",0,0,0,0,0,0,0,0,0,"Not found"
2020-01-28,"КНП ""Лікарня №2 ім. В.П.Павлусенка""","Zhitomirska",NA,"m. Zhitomir, vul. Romana Shuhevicha, 2-A","42789136","50.255794","28.659639",0,0,0,0,0,0,0,0,0,"Not found"
2020-01-28,"КНП ""Козівська центральна районна лікарня""","TernopIlska","KozIvskiy","smt. Kozova, vul. Zelena, 19","02000792","49.430667","25.157631",0,0,0,0,0,0,0,0,0,"Not found"
2020-01-28,"КНП ""Міська лікарня №1""","ChernIvetska",NA,"m. ChernIvtsI, vul. GeroYiv Maydanu, 226","01110972","48.292097","25.931513",0,0,0,0,0,0,0,0,0,"Not found"
2020-01-28,"КНП ""Київська міська клінічна лікарня №5""","m. KiYiv",NA,"m. KiYiv, vul. VIdpochinku, 11","00185028","50.447844985","30.524776820",0,0,0,0,0,0,0,0,0,"Not found"
2020-01-28,"КНП ""Київська міська клінічна лікарня №8""","m. KiYiv",NA,"m. KiYiv, vul. YurIya Kondratyuka, 8","05497146","50.447844985","30.524776820",0,0,0,0,0,0,0,0,0,"Not found"
2020-01-28,"КНП ""Монастирська центральна районна лікарня""","TernopIlska","Monastiriskiy","m. Monastiriska, vul. Shevchenka, 29","36338715","49.088970","25.161867",0,0,0,0,0,0,0,0,0,"Not found"
2020-01-29,"КНП ""Бершадська окружна лікарня інтенсивного лікування""","VInnitska","Bershadskiy","m. Bershad, vul. Budkevicha, 2","01982494","48.363830569","29.511209145",0,13,0,20,0,0,0,0,0,"Not found"
2020-01-29,"КНП «Ямпільська ЦРЛ»","VInnitska","YampIlskiy","m. YampIl, vul. Pirogova,1","01982726","48.247685881","28.278572814",0,11,0,6,0,0,0,0,0,"Not found"
2020-01-29,"КНП «Вінницька міська клінічна лікарня №1»","VInnitska",NA,"m. VInnitsya, vul. Hmelnitske shose, 96","05484126","49.236347324","28.414002928",0,11,0,12,0,0,0,0,0,"Not found"
2020-01-29,"КНП ""Хмільницька центральна районна лікарня""","VInnitska",NA,"m. HmIlnik, vul. Monastirska, 71","01982695","49.553637292","27.948236991",0,9,0,4,0,0,0,0,0,"Not found"
2020-01-29,"КНП ""Вінницька центральна районна клінічна лікарня""","VInnitska",NA,"m. VInnitsya, Hmelnitske shose, 92","01982502","49.235508","28.414243",0,6,0,16,0,0,0,0,0,"Not found"
2020-01-29,"КНП ""Могилів-Подільська обласна лікарня інтенсивного лікування""","VInnitska","MogilIv-PodIlskiy","m. MogilIv-PodIlskiy, vul. Poltavska, 89/2","01982591","48.458001084","27.771482977",0,4,0,6,0,0,0,0,0,"Not found"
2020-01-29,"КНП «Крижопільська ОЛІЛ»","VInnitska","KrizhopIlskiy","smt. KrizhopIl, vul. Danila Nechaya, 10","01982560","48.383047974","28.873021153",0,3,0,4,0,0,0,0,0,"Not found"
2020-01-29,"КНП ""Шаргородська центральна районна лікарня""","VInnitska","Shargorodskiy","m. Shargorod, vul. Parhomenko, 9","33868196","48.74983","28.08317",0,3,0,20,0,0,0,0,0,"Not found"
2020-01-29,"КНП «Вінницька обласна дитяча інфекційна клінічна лікарня»","VInnitska",NA,"m. VInnitsya, vul. KiYivska, 68","34004453","49.250053205","28.476839183",0,3,0,55,0,0,0,0,0,"Not found"
2020-01-29,"КНП ""Жмеринська центральна районна лікарня""","VInnitska",NA,"m. Zhmerinka, vul. KiYivska, 288","37261811","49.061009","28.119112",0,3,0,2,0,0,0,0,0,"Not found"
2020-01-29,"КНП ""Немирівська центральна районна лікарня""","VInnitska","NemirIvskiy","m. NemirIv, vul. Evdokimenka, 21","01982614","48.974671","28.844196",0,3,0,10,0,0,0,0,0,"Not found"
2020-01-29,"КНП «Піщанська ЦРЛ»","VInnitska","PIschanskiy","smt. PIschanka, vul. Tsentralna,42","01982620","48.210431793","28.884156165",0,1,0,2,0,0,0,0,0,"Not found"
2020-01-29,"КП ""Волинська обласна клінічна лікарня""","Volinska",NA,"m. Lutsk, prosp. Prezidenta Grushevskogo, 21","01983163","50.74507","25.32008",0,0,0,0,0,0,0,0,0,"Not found"
2020-01-29,"КНП ""Іваничівська центральна районна лікарня""","Volinska","IvanichIvskiy","smt. IvanichI, vul. Grushevskogo, 45","01982904","50.63777","24.35917",0,0,0,0,0,0,0,0,0,"Not found"
2020-01-29,"КНП ""Ковельське міськрайонне територіальне медичне об'єднання""","Volinska",NA,"m. Kovel, vul. Oleni PchIlki, 4","01982940","51.213658141","24.712902655",0,12,0,8,0,0,0,0,0,"Not found"
2020-01-29,"КНП ""Нововолинська центральна міська лікарня""","Volinska",NA,"m. Novovolinsk, prosp. Peremogi, 7","01983016","50.724657282","24.172172515",0,11,0,6,0,0,0,0,0,"Not found"
2020-01-29,"КП ""Воолинський обласний перинатальний центр"" Волинської обласної ради","Volinska",NA,"m. Lutsk, vul. Zagorodnya, 20","42078561","50.74507","25.32008",0,9,0,2,0,0,0,0,0,"Not found"
2020-01-29,"КП ""Луцька центральна районна лікарня""","Volinska","Lutskiy","s. Lipini, vul. TeremnIvska, 100","01983134","50.764280","25.393923",0,9,0,20,0,0,0,0,0,"Not found"
2020-01-29,"КП""Маневицька центральна районна лікарня""","Volinska","Manevitskiy","smt. ManevichI, vul. NezalezhnostI, 1","01983186","51.290636","25.561194",0,9,0,20,0,0,0,0,0,"Not found"
2020-01-29,"КНП ""Камінь-Каширська центральна районна лікарня""","Volinska","KamIn-Kashirskiy","m. KamIn-Kashirsk, vul. Shevchenka, 43","01983051","51.631262443","24.951863920",0,7,0,4,0,0,0,0,0,"Not found"
2020-01-29,"КНП ""Горохівська центральна районна лікарня""","Volinska","GorohIvskiy","m. GorohIv, vul. Parkova, 22","01982896","50.496364","24.762261",0,6,0,20,0,0,0,0,0,"Not found"
2020-01-29,"КП ""Волинська обласна інфекційна лікарня"" Волинської обласної ради","Volinska",NA,"m. Lutsk, vul. Shevchenka, 30","03398983","50.74507","25.32008",0,5,0,16,0,0,0,0,0,"Not found"
2020-01-29,"КП ""Кверцівське районне територіальне медичне об'єднання""","Volinska","KIvertsIvskiy","m. KIvertsI, vul. FIlatova, 6","38856054","50.832340","25.457025",0,2,0,15,0,0,0,0,0,"Not found"
2020-01-29,"КНП „Міська клінічна лікарня № 21 імені проф. Є.Г. Попкової ” Дніпровської міської ради","DnIpropetrovska",NA,"m. DnIpro, vul. Kanatna, 17","01984659","48.462218030","35.003954116",0,6,0,180,0,0,0,0,0,"Not found"
2020-01-29,"КНП „Криворізька інфекційна лікарня № 1”  Криворізької міської ради","DnIpropetrovska",NA,"m. Kriviy RIg, vul. YurIya KamInskogo, 5","01986115","47.903169071","33.388954027",0,3,0,180,0,0,0,0,0,"Not found"
2020-01-29,"КОМУНАЛЬНЕ НЕКОМЕРЦІЙНЕ ПІДПРИЄМСТВО МАРІУПОЛЬСЬКОЇ МІСЬКОЇ РАДИ ""МАРІУПОЛЬСЬКА МІСЬКА ЛІКАРНЯ № 4 ІМ. І.К. МАЦУКА""","Donetska",NA,"m. MarIupol, vul. Pashkovskogo, 4","01990654","47.110023873","37.632926587",0,7,0,130,0,0,0,0,0,"Not found"
2020-01-29,"КОМУНАЛЬНЕ НЕКОМЕРЦІЙНЕ ПІДПРИЄМСТВО МАРІУПОЛЬСЬКОЇ МІСЬКОЇ РАДИ ""МАРІУПОЛЬСЬКА МІСЬКА ЛІКАРНЯ ШВИДКОЇ МЕДИЧНОЇ ДОПОМОГИ""","Donetska",NA,"m. MarIupol, vul. Bahmutska, 20-A","01990660","47.115768286","37.547935870",0,6,0,40,0,0,0,0,0,"Not found"
2020-01-29,"КОМУНАЛЬНЕ НЕКОМЕРЦІЙНЕ ПІДПРИЄМСТВО ""ІНФЕКЦІЙНА ЛІКАРНЯ М.КОСТЯНТИНІВКА""","Donetska",NA,"m. KostyantinIvka, vul. Evropeyska, 17","03096940","48.499353083","37.686972210",0,2,0,90,0,0,0,0,0,"Not found"
2020-01-29,"КОМУНАЛЬНЕ НЕКОМЕРЦІЙНЕ ПІДПРИЄМСТВО ""ІНФЕКЦІЙНА ЛІКАРНЯ М. МИРНОГРАД""","Donetska",NA,"m. Mirnograd, prov. TolbuhIna, 44","31338129","48.268806571","37.276419820",0,1,0,75,0,0,0,0,0,"Not found"
2020-01-29,"КНП ""Ємільчинська центральна районна лікарня""","Zhitomirska","EmIlchinskiy","smt. EmIlchine, vul 1 travnya, 133","01991659","50.87253","27.80708",0,0,0,0,0,0,0,0,0,"Not found"
2020-01-29,"КНП ""Овруцька міська лікарня""","Zhitomirska","Ovrutskiy","m. Ovruch, vul. Tarasa Shevchenka, 106","42435766","51.32598","28.80267",0,0,0,0,0,0,0,0,0,"Not found"
2020-01-29,"КНП ""Бердичівська міська лікарня""","Zhitomirska",NA,"m. BerdichIv, vul. Zdorov’ya, 1","01992015","49.901759","28.586652",0,16,0,16,0,0,0,0,0,"Not found"
2020-01-29,"Комунальне підприємство «Лікарня №1» Житомирської міської ради","Zhitomirska",NA,"m. Zhitomir, vul. Velika BerdichIvska, 70","42788614","50.255794","28.659639",0,16,0,40,0,0,0,0,0,"Not found"
2020-01-29,"КНП «Житомирська обласна дитяча клінічна лікарня» Житомирської обласної ради","Zhitomirska","Zhitomirskiy","s. StanIshIvka, Skvirske shose, 6","02774119","50.230535527","28.687190713",0,9,0,36,0,0,0,0,0,"Not found"
2020-01-29,"КНП ""Андрушівська центральна районна лікарня""","Zhitomirska","AndrushIvskiy","m. AndrushIvka, vul. TItova, 34","01991547","50.029632767","29.019907729",0,5,0,6,0,0,0,0,0,"Not found"
2020-01-29,"КНП ""Центральна районна лікарня ім. Д.І.Потєхіна""","Zhitomirska","KorostishIvskiy","m. KorostishIv, vul. GeroYiv NebesnoYi SotnI, 58","01991731","50.314039127","29.057025776",0,5,0,2,0,0,0,0,0,"Not found"
2020-01-29,"КНП ""Коростенська центральна міська лікарня""","Zhitomirska",NA,"m. Korosten, vul. M.Amosova, 8","01992050","50.94929","28.64162",0,4,0,9,0,0,0,0,0,"Not found"
2020-01-29,"КНП ""Новоград-Волинське міськрайонне територіальне медичне об'єднання""","Zhitomirska",NA,"m. Novograd-Volinskiy, vul. NatalIYi OrzhevskoYi, 13","01991820","50.585629291","27.607596661",0,4,0,55,0,0,0,0,0,"Not found"
2020-01-29,"КНП ""Народицька лікарня""","Zhitomirska","Naroditskiy","smt. NarodichI, vul. Zamkova, 115","42739284","51.199922272","29.086159986",0,0,0,2,0,0,0,0,0,"Not found"
2020-01-29,"КНП «Радомишльська лікарня» Радомишльської міської ради","Zhitomirska","Radomishlskiy","m. Radomishl, vul. Prisutstvenna, 9","01991903","50.503096625","29.240794035",0,NA,0,15,0,0,0,0,0,"Not found"
2020-01-29,"КП ""Дитяча лікарня імені В.Й. Башека""","Zhitomirska",NA,"m. Zhitomir, vul. Svyatoslava RIhtera, 23","42779217","50.255794","28.659639",1,NA,0,4,1,1,0,0,0,"Suspicion"
2020-01-29,"КНП «Обласна клінічна інфекційна лікарня» Закарпатської обласної ради»","Zakarpatska",NA,"m. Uzhgorod, vul.GriboEdova, 20a","26464978","48.638118013","22.282963181",0,6,0,100,0,0,0,0,0,"Not found"
2020-01-29,"КНП ""ТМО ""БЛІЛ та швидкої мед.допомоги"" ММР ЗО (відокремлений підрозділ ""Інфекційна лікарня"")","ZaporIzka",NA,"m. MelItopol, vul. KIzIyarska,38","05498720","46.865809024","35.395828325",0,20,0,100,0,0,0,0,0,"Not found"
2020-01-29,"КНП БМР ""Бердянське територіальне медичне об'єднання""","ZaporIzka",NA,"m. Berdyansk, vul. Konsulska, 23","39029713","46.760974884","36.786884491",0,19,0,40,0,0,0,0,0,"Not found"
2020-01-29,"КНП ""Дніпрорудненська БМЛ"" ДМР ВР ЗО","ZaporIzka","VasilIvskiy","m. DnIprorudne, vul. Zelena, 2","02005131","47.389688873","35.010935204",0,8,0,30,0,0,0,0,0,"Not found"
2020-01-29,"КНП ""Мелітопольська ЦРЛ"" МРР ЗО","ZaporIzka",NA,"m. MelItopol, vul.KIzIyarska,55","01992877","46.871115695","35.394588602",0,8,0,32,0,0,0,0,0,"Not found"
2020-01-29,"КНП "" Пологівська БЛІЛ"" ПРР ЗО","ZaporIzka","PologIvskiy","m. Pologi, vul. Im. Geroya UkraYini Satskogo V.A.,6 / vul. I.Chuberka, 90","01992972","47.481971585","36.247797685",0,8,0,26,0,0,0,0,0,"Not found"
2020-01-29,"КНП ""Якимівська ЦРЛ"" ЯСР ЗО","ZaporIzka","YakimIvskiy","smt. YakimIvka, vul. Tsentralna, 30","01993032","46.707021478","35.168084902",0,8,0,25,0,0,0,0,0,"Not found"
2020-01-29,"КНП ""Кам'янська-Дніпровська ЦРЛ"" КДРРР ЗО","ZaporIzka",NA,"m. Kam'yanka-DnIprovska, vul Naberezhna, 130","01992854","47.487090103","34.416736211",0,6,0,27,0,0,0,0,0,"Not found"
2020-01-29,"КП ""Приморська ЦРЛ"" ПРР ЗО","ZaporIzka","Primorskiy","m. Primorsk, vul. Morska, 74","01992989","46.724143180","36.358452487",0,5,0,12,0,0,0,0,0,"Not found"
2020-01-29,"КП ""Веселівська БЛІЛ"" ВРР","ZaporIzka","VeselIvskiy","smt. Vesele, vul. Gorkogo, 2A","41955911","47.018487189","34.908776219",0,5,0,10,0,0,0,0,0,"Not found"
2020-01-29,"КНП ""Гуляпільська ЦРЛ"" ГРР ЗО","ZaporIzka","GulyaypIlskiy","m. Gulyay-Pole, vul. Soborna, 107-b","01992937","47.665744415","36.258833592",0,4,0,20,0,0,0,0,0,"Not found"
2020-01-29,"КНП ""Спеціалізована медико-санітарна частина""ЕМР","ZaporIzka",NA,"m. Energodar, vul. BudIvelnikIv, 33","42594137","47.501506722","34.634185914",0,4,0,30,0,0,0,0,0,"Not found"
2020-01-29,"КУ ""Обласна інфекційна клінічна лікарня"" ЗОР","ZaporIzka",NA,"m. ZaporIzhzhya, bul. GvardIyskiy, 142","05498849","47.838633","35.160926",0,4,0,46,0,0,0,0,0,"Not found"
2020-01-29,"КП ""Токмацька БЛІЛ"" ТМР","ZaporIzka",NA,"m. Tokmak, vul. Tsentralna, 55M","41477873","47.255713330","35.708740805",0,4,0,15,0,0,0,0,0,"Not found"
2020-01-29,"КНП ""Оріхівська БЛІЛ"" ОРР ЗО","ZaporIzka","OrIhIvskiy","m. OrIhIv, vul. Parkova, 2","01992953","47.566440571","35.786295504",0,3,0,31,0,0,0,0,0,"Not found"
2020-01-29,"Клініка ""Мотор-Січ""","ZaporIzka",NA,"m. ZaporIzhzhya, vul. Bryullova, 6","31507969","47.827833","35.203717",0,2,0,0,0,0,0,0,0,"Not found"
2020-01-29,"ТОВ ""Вітацентр""","ZaporIzka",NA,"m. ZaporIzhzhya, vul. SEdova, 3","35183119","47.838633","35.160926",0,1,0,0,0,0,0,0,0,"Not found"
2020-01-29,"КНП ""Центр первинної медико-санітарної допомоги №2""","ZaporIzka",NA,"m. MelItopol, vul. IndustrIalna, 89","38761806","46.850039","35.343226",0,1,0,0,0,0,0,0,0,"Not found"
2020-01-29,"КНП ""Центр первинної медико-санітарної допомоги № 8""","ZaporIzka",NA,"m. ZaporIzhzhya, vul. Harchova, 2","38783662","47.838633","35.160926",0,1,0,0,0,0,0,0,0,"Not found"
2020-01-29,"КНП ""Запорізький центр первинної медико-санітарної допомоги №1""","ZaporIzka",NA,"m. ZaporIzhzhya, prosp. Soborniy, 88","38969725","47.820423","35.173109",0,0,0,0,0,0,0,0,0,"Not found"
2020-01-29,"КНП ""Нововасилівська РЛ"" ПРР ЗО","ZaporIzka","Priazovskiy","smt. NovovasilIvka, vul. Poshtova, 75","24908721","46.829166996","35.755278000",0,0,0,20,0,0,0,0,0,"Not found"
2020-01-29,"КНП ""Центр первинної медико-санітарної допомоги № 6""","ZaporIzka",NA,"m. ZaporIzhzhya, vul. Chumachenko, 21","38969678","47.782566","35.229527",0,0,0,0,0,0,0,0,0,"Not found"
2020-01-29,"КНП ""Городенківська центральна районна лікарня""","Ivano-FrankIvska","GorodenkIvskiy","m. Gorodenka, vul. Sheptitskogo, 24-E","01993428","48.664415124","25.491961338",0,6,0,10,0,0,0,0,0,"Not found"
2020-01-29,"КНП ""Івано-Франківська обласна клінічна інфекційна лікарня”","Ivano-FrankIvska",NA,"m. Ivano-FrankIvsk, vul. Getmana Sagaydachnogo, 66","01993291","48.938635828","24.719539985",1,6,0,170,1,1,0,0,0,"Suspicion"
2020-01-29,"КНП «Долинська багатопрофільна лікарня» Долинської  районної ради Івано-Франківської області","Ivano-FrankIvska","Dolinskiy","m. Dolina, vul. Oksani Gritsey, 15","01993457","48.972304717","23.992965630",0,6,0,20,0,0,0,0,0,"Not found"
2020-01-29,"КНП «Рожнятівська ЦРЛ» Рожнятівської районної ради","Ivano-FrankIvska","RozhnyatIvskiy","smt. RozhnyatIv, vul. ShkIlna, 17","01993612","48.933955175","24.147874990",0,6,0,20,0,0,0,0,0,"Not found"
2020-01-29,"КНП «Косівська ЦРЛ» Косівської районної ради","Ivano-FrankIvska","KosIvskiy","m. KosIv, prov. Shevchenka, 27","01993546","48.320447474","25.110282902",0,5,0,20,0,0,0,0,0,"Not found"
2020-01-29,"КНП «Яремчанська ЦМЛ» Яремчанської міської ради","Ivano-FrankIvska",NA,"m. Yaremche, vul. Dovbusha, 5","01993552","48.429582000","24.576655019",0,3,0,10,0,0,0,0,0,"Not found"
2020-01-29,"КНП «Надвірнянська ЦРЛ» Надвірнянського району","Ivano-FrankIvska","NadvIrnyanskiy","m. NadvIrna, vul. Grushevskogo, 12","01993575","48.631076828","24.560301592",0,3,0,30,0,0,0,0,0,"Not found"
2020-01-29,"КНП «Богородчанська ЦРЛ» Богородчанської районної ради","Ivano-FrankIvska","Bogorodchanskiy","smt. Bogorodchani, vul. Shevchenka, 35","01993351","48.811562078","24.544454903",0,2,0,20,0,0,0,0,0,"Not found"
2020-01-29,"КНП «Заболотівська районна лікарня  Заболотівської селищної ради»  ОТГ","Ivano-FrankIvska","Snyatinskiy","smt. ZabolotIv, vul. B.Hmelnitskogo, 10","01993629","48.468603515","25.284909822",0,1,0,20,0,0,0,0,0,"Not found"
2020-01-29,"КНП «Верховинська ЦРЛ» Верховинської районної ради","Ivano-FrankIvska","Verhovinskiy","smt. Verhovina, vul. Nevestyuka, bud. 2","01993374","48.155450710","24.811645698",0,0,0,10,0,0,0,0,0,"Not found"
2020-01-29,"Коломийська районна інфекційна лікарня","Ivano-FrankIvska",NA,"m. Kolomiya, vul. Simona Petlyuri, 66","31575286","48.536837196","25.045357525",0,0,0,60,0,0,0,0,0,"Not found"
2020-01-29,"КНП «Районна лікарня Калуської районної ради","Ivano-FrankIvska",NA,"m. Kalush, vul. Karakaya, 25","33271905","49.018029815","24.350981701",0,0,0,25,0,0,0,0,0,"Not found"
2020-01-29,"8. КНП «Центральна районна лікарня Києво-Святошинської районної ради»","KiYivska","KiEvo-Svyatoshinskiy","m. Boyarka, vul. SobornostI, 51","01994669","50.330963777","30.276410608",0,18,0,40,0,0,0,0,0,"Not found"
2020-01-29,"10. Комунальне некомерційне підприємство  «Броварська багатопрофільна клінічна лікарня» БРР БМР","KiYivska",NA,"m. Brovari, vul. Shevchenko, 14","01994497","50.510931013","30.764942274",0,14,0,31,0,0,0,0,0,"Not found"
2020-01-29,"7. Комунальне некомерційне підприємство Васильківської районної ради «Васильківська центральна районна лікарня»","KiYivska","VasilkIvskiy","m. VasilkIv, vul. DekabristIv, 87","01994385","50.201378217","30.312494273",0,8,0,34,0,0,0,0,0,"Not found"
2020-01-29,"12.Комунальне некомерційне підприємство Макарівської  районної ради «Баришівська центральна районна лікарня»","KiYivska","MakarIvskiy","m. MakarIv, vul. B.Hmelnitskogo, 62-A","01994698","57.88040","43.80724",0,7,0,4,0,0,0,0,0,"Not found"
2020-01-29,"13.Комунальне некомерційне підприємство Миронівської  районної ради «Миронівська центральна районна лікарня»","KiYivska","MironIvskiy","m. MironIvka, vul. BlagovIschenska, 96","01994149","49.677070683","30.979852801",0,7,0,15,0,0,0,0,0,"Not found"
2020-01-29,"1. КОМУНАЛЬНАЛЬНЕ НЕКОМЕРЦІЙНЕ ПІДПРИЄМСТВОКИЇВСЬКОЇ ОБЛАСНОЇ РАДИ ""КИЇВСЬКА ОБЛАСНА ДИТЯЧА ЛІКАРНЯ""","KiYivska","KiEvo-Svyatoshinskiy","m. Boyarka, vul. Hreschatik, 83","01994451","50.318723071","30.295198377",0,5,0,15,0,0,0,0,0,"Not found"
2020-01-29,"3. Комунальне некомерційне підприємство Таращанської районної ради «Таращанська центральна районна лікарня»","KiYivska","Taraschanskiy","m. Tarascha, vul. Shevchenka, 66","01994215","49.557990888","30.499331485",0,5,0,5,0,0,0,0,0,"Not found"
